[{"title":"Acara\u00fa_CE_BRA","epw_url":"https://energyplus-weather.s3.amazonaws.com/south_america_wmo_region_3/BRA/BRA_CE_Acarau.817550_INMET/BRA_CE_Acarau.817550_INMET.epw","lon":-40.09,"lat":-3.12},{"title":"Aimor\u00e9s_MG_BRA","epw_url":"https://energyplus-weather.s3.amazonaws.com/south_america_wmo_region_3/BRA/BRA_MG_Aimores.868030_INMET/BRA_MG_Aimores.868030_INMET.epw","lon":-41.06,"lat":-19.5},{"title":"Alegre_ES_BRA","epw_url":"https://energyplus-weather.s3.amazonaws.com/south_america_wmo_region_3/BRA/BRA_ES_Alegre.868280_INMET/BRA_ES_Alegre.868280_INMET.epw","lon":-41.53,"lat":-20.76},{"title":"Alegrete_RS_BRA","epw_url":"https://energyplus-weather.s3.amazonaws.com/south_america_wmo_region_3/BRA/BRA_RS_Alegrete.869750_INMET/BRA_RS_Alegrete.869750_INMET.epw","lon":-55.79,"lat":-29.78},{"title":"Alfredo Chaves_ES_BRA","epw_url":"https://energyplus-weather.s3.amazonaws.com/south_america_wmo_region_3/BRA/BRA_ES_Alfredo.Chaves.868290_INMET/BRA_ES_Alfredo.Chaves.868290_INMET.epw","lon":-40.75,"lat":-20.64},{"title":"Almenara_MG_BRA","epw_url":"https://energyplus-weather.s3.amazonaws.com/south_america_wmo_region_3/BRA/BRA_MG_Almenara.867430_INMET/BRA_MG_Almenara.867430_INMET.epw","lon":-40.69,"lat":-16.18},{"title":"Alto Para\u00edso de Goi\u00e1s_GO_BRA","epw_url":"https://energyplus-weather.s3.amazonaws.com/south_america_wmo_region_3/BRA/BRA_GO_Alto.Paraiso.de.Goias.866910_INMET/BRA_GO_Alto.Paraiso.de.Goias.866910_INMET.epw","lon":-47.51,"lat":-14.13},{"title":"Alto Parna\u00edba_MA_BRA","epw_url":"https://energyplus-weather.s3.amazonaws.com/south_america_wmo_region_3/BRA/BRA_MA_Alto.Parnaiba.829700_INMET/BRA_MA_Alto.Parnaiba.829700_INMET.epw","lon":-45.93,"lat":-9.11},{"title":"Alto Taquari_MT_BRA","epw_url":"https://energyplus-weather.s3.amazonaws.com/south_america_wmo_region_3/BRA/BRA_MT_Alto.Taquari.867500_INMET/BRA_MT_Alto.Taquari.867500_INMET.epw","lon":-53.29,"lat":-17.82},{"title":"Alvorada do Gurgu\u00e9ia_PI_BRA","epw_url":"https://energyplus-weather.s3.amazonaws.com/south_america_wmo_region_3/BRA/BRA_PI_Alvorada.do.Gurgueia.818460_INMET/BRA_PI_Alvorada.do.Gurgueia.818460_INMET.epw","lon":-43.86,"lat":-8.44},{"title":"Amambai_MS_BRA","epw_url":"https://energyplus-weather.s3.amazonaws.com/south_america_wmo_region_3/BRA/BRA_MS_Amambai.868940_INMET/BRA_MS_Amambai.868940_INMET.epw","lon":-55.33,"lat":-23},{"title":"Amargosa AP_BA_BRA","epw_url":"https://energyplus-weather.s3.amazonaws.com/south_america_wmo_region_3/BRA/BRA_BA_Amargosa.AP.866750_INMET/BRA_BA_Amargosa.AP.866750_INMET.epw","lon":-39.62,"lat":-13.01},{"title":"Apiac\u00e1s_MT_BRA","epw_url":"https://energyplus-weather.s3.amazonaws.com/south_america_wmo_region_3/BRA/BRA_MT_Apiacas.819760_INMET/BRA_MT_Apiacas.819760_INMET.epw","lon":-57.45,"lat":-9.54},{"title":"Apodi_RN_BRA","epw_url":"https://energyplus-weather.s3.amazonaws.com/south_america_wmo_region_3/BRA/BRA_RN_Apodi.818350_INMET/BRA_RN_Apodi.818350_INMET.epw","lon":-37.83,"lat":-5.63},{"title":"Aracaju_SE_BRA","epw_url":"https://energyplus-weather.s3.amazonaws.com/south_america_wmo_region_3/BRA/BRA_SE_Aracaju.866160_INMET/BRA_SE_Aracaju.866160_INMET.epw","lon":-37.07,"lat":-10.91},{"title":"Aragar\u00e7as_GO_BRA","epw_url":"https://energyplus-weather.s3.amazonaws.com/south_america_wmo_region_3/BRA/BRA_GO_Aragarcas.833740_INMET/BRA_GO_Aragarcas.833740_INMET.epw","lon":-52.25,"lat":-15.9},{"title":"Araguatins_TO_BRA","epw_url":"https://energyplus-weather.s3.amazonaws.com/south_america_wmo_region_3/BRA/BRA_TO_Araguatins.818210_INMET/BRA_TO_Araguatins.818210_INMET.epw","lon":-48.11,"lat":-5.64},{"title":"Aragua\u00edna_TO_BRA","epw_url":"https://energyplus-weather.s3.amazonaws.com/south_america_wmo_region_3/BRA/BRA_TO_Araguaina.819000_INMET/BRA_TO_Araguaina.819000_INMET.epw","lon":-48.22,"lat":-7.18},{"title":"Arapiraca AP_AL_BRA","epw_url":"https://energyplus-weather.s3.amazonaws.com/south_america_wmo_region_3/BRA/BRA_AL_Arapiraca.AP.819960_INMET/BRA_AL_Arapiraca.AP.819960_INMET.epw","lon":-36.62,"lat":-9.8},{"title":"Ararangu\u00e1_SC_BRA","epw_url":"https://energyplus-weather.s3.amazonaws.com/south_america_wmo_region_3/BRA/BRA_SC_Ararangua.869710_INMET/BRA_SC_Ararangua.869710_INMET.epw","lon":-49.5,"lat":-28.93},{"title":"Arax\u00e1_MG_BRA","epw_url":"https://energyplus-weather.s3.amazonaws.com/south_america_wmo_region_3/BRA/BRA_MG_Araxa.867960_INMET/BRA_MG_Araxa.867960_INMET.epw","lon":-46.94,"lat":-19.59},{"title":"Arcoverde_PE_BRA","epw_url":"https://energyplus-weather.s3.amazonaws.com/south_america_wmo_region_3/BRA/BRA_PE_Arcoverde.819530_INMET/BRA_PE_Arcoverde.819530_INMET.epw","lon":-37.05,"lat":-8.42},{"title":"ARE_Abu.Dhabi.412170_IWEC","epw_url":"https://energyplus-weather.s3.amazonaws.com/asia_wmo_region_2/ARE/ARE_Abu.Dhabi.412170_IWEC/ARE_Abu.Dhabi.412170_IWEC.epw","lon":54.65,"lat":24.43},{"title":"Areia_PB_BRA","epw_url":"https://energyplus-weather.s3.amazonaws.com/south_america_wmo_region_3/BRA/BRA_PB_Areia.818770_INMET/BRA_PB_Areia.818770_INMET.epw","lon":-35.69,"lat":-6.96},{"title":"ARG_Buenos.Aires.875760_IWEC","epw_url":"https://energyplus-weather.s3.amazonaws.com/south_america_wmo_region_3/ARG/ARG_Buenos.Aires.875760_IWEC/ARG_Buenos.Aires.875760_IWEC.epw","lon":-58.53,"lat":-34.82},{"title":"Ariquemes_RO_BRA","epw_url":"https://energyplus-weather.s3.amazonaws.com/south_america_wmo_region_3/BRA/BRA_RO_Ariquemes.819700_INMET/BRA_RO_Ariquemes.819700_INMET.epw","lon":-62.96,"lat":-9.95},{"title":"Ariranha_SP_BRA","epw_url":"https://energyplus-weather.s3.amazonaws.com/south_america_wmo_region_3/BRA/BRA_SP_Ariranha.868410_INMET/BRA_SP_Ariranha.868410_INMET.epw","lon":-48.84,"lat":-21.13},{"title":"Arraial do Cabo_RJ_BRA","epw_url":"https://energyplus-weather.s3.amazonaws.com/south_america_wmo_region_3/BRA/BRA_RJ_Arraial.do.Cabo.868920_INMET/BRA_RJ_Arraial.do.Cabo.868920_INMET.epw","lon":-42.03,"lat":-22.97},{"title":"AUS_ACT.Canberra.949260_IWEC","epw_url":"https://energyplus-weather.s3.amazonaws.com/southwest_pacific_wmo_region_5/AUS/AUS_ACT.Canberra.949260_IWEC/AUS_ACT.Canberra.949260_IWEC.epw","lon":149.18,"lat":-35.3},{"title":"AUS_ACT.Canberra.Airport.949260_RMY","epw_url":"https://energyplus-weather.s3.amazonaws.com/southwest_pacific_wmo_region_5/AUS/AUS_ACT.Canberra.Airport.949260_RMY/AUS_ACT.Canberra.Airport.949260_RMY.epw","lon":149.2,"lat":-35.3},{"title":"AUS_NSW.Armidale.Airport.957730_RMY","epw_url":"https://energyplus-weather.s3.amazonaws.com/southwest_pacific_wmo_region_5/AUS/AUS_NSW.Armidale.Airport.957730_RMY/AUS_NSW.Armidale.Airport.957730_RMY.epw","lon":151.62,"lat":-30.53},{"title":"AUS_NSW.Cabramurra.959160_RMY","epw_url":"https://energyplus-weather.s3.amazonaws.com/southwest_pacific_wmo_region_5/AUS/AUS_NSW.Cabramurra.959160_RMY/AUS_NSW.Cabramurra.959160_RMY.epw","lon":148.38,"lat":-35.93},{"title":"AUS_NSW.Cobar.947110_RMY","epw_url":"https://energyplus-weather.s3.amazonaws.com/southwest_pacific_wmo_region_5/AUS/AUS_NSW.Cobar.947110_RMY/AUS_NSW.Cobar.947110_RMY.epw","lon":145.83,"lat":-31.48},{"title":"AUS_NSW.Coffs.Harbour.947910_RMY","epw_url":"https://energyplus-weather.s3.amazonaws.com/southwest_pacific_wmo_region_5/AUS/AUS_NSW.Coffs.Harbour.947910_RMY/AUS_NSW.Coffs.Harbour.947910_RMY.epw","lon":153.12,"lat":-30.32},{"title":"AUS_NSW.Dubbo.Airport.957190_RMY","epw_url":"https://energyplus-weather.s3.amazonaws.com/southwest_pacific_wmo_region_5/AUS/AUS_NSW.Dubbo.Airport.957190_RMY/AUS_NSW.Dubbo.Airport.957190_RMY.epw","lon":148.57,"lat":-32.22},{"title":"AUS_NSW.Mascot-Sydney.Airport.947670_RMY","epw_url":"https://energyplus-weather.s3.amazonaws.com/southwest_pacific_wmo_region_5/AUS/AUS_NSW.Mascot-Sydney.Airport.947670_RMY/AUS_NSW.Mascot-Sydney.Airport.947670_RMY.epw","lon":151.17,"lat":-33.93},{"title":"AUS_NSW.Moree.Aero.955270_RMY","epw_url":"https://energyplus-weather.s3.amazonaws.com/southwest_pacific_wmo_region_5/AUS/AUS_NSW.Moree.Aero.955270_RMY/AUS_NSW.Moree.Aero.955270_RMY.epw","lon":149.83,"lat":-29.48},{"title":"AUS_NSW.Nowra.RAN.Air.Station.947500_RMY","epw_url":"https://energyplus-weather.s3.amazonaws.com/southwest_pacific_wmo_region_5/AUS/AUS_NSW.Nowra.RAN.Air.Station.947500_RMY/AUS_NSW.Nowra.RAN.Air.Station.947500_RMY.epw","lon":150.53,"lat":-34.95},{"title":"AUS_NSW.Orange.Airport.957260_RMY","epw_url":"https://energyplus-weather.s3.amazonaws.com/southwest_pacific_wmo_region_5/AUS/AUS_NSW.Orange.Airport.957260_RMY/AUS_NSW.Orange.Airport.957260_RMY.epw","lon":149.13,"lat":-33.38},{"title":"AUS_NSW.Richmond.RAAF.957530_RMY","epw_url":"https://energyplus-weather.s3.amazonaws.com/southwest_pacific_wmo_region_5/AUS/AUS_NSW.Richmond.RAAF.957530_RMY/AUS_NSW.Richmond.RAAF.957530_RMY.epw","lon":150.78,"lat":-33.6},{"title":"AUS_NSW.Sydney.947670_IWEC","epw_url":"https://energyplus-weather.s3.amazonaws.com/southwest_pacific_wmo_region_5/AUS/AUS_NSW.Sydney.947670_IWEC/AUS_NSW.Sydney.947670_IWEC.epw","lon":151.18,"lat":-33.95},{"title":"AUS_NSW.Sydney.947680_RMY","epw_url":"https://energyplus-weather.s3.amazonaws.com/southwest_pacific_wmo_region_5/AUS/AUS_NSW.Sydney.947680_RMY/AUS_NSW.Sydney.947680_RMY.epw","lon":151.2,"lat":-33.85},{"title":"AUS_NSW.Thredbo.Village.959080_RMY","epw_url":"https://energyplus-weather.s3.amazonaws.com/southwest_pacific_wmo_region_5/AUS/AUS_NSW.Thredbo.Village.959080_RMY/AUS_NSW.Thredbo.Village.959080_RMY.epw","lon":148.3,"lat":-36.5},{"title":"AUS_NSW.Wagga.Wagga.949100_RMY","epw_url":"https://energyplus-weather.s3.amazonaws.com/southwest_pacific_wmo_region_5/AUS/AUS_NSW.Wagga.Wagga.949100_RMY/AUS_NSW.Wagga.Wagga.949100_RMY.epw","lon":147.45,"lat":-35.17},{"title":"AUS_NSW.Williamtown.RAAF.947760_RMY","epw_url":"https://energyplus-weather.s3.amazonaws.com/southwest_pacific_wmo_region_5/AUS/AUS_NSW.Williamtown.RAAF.947760_RMY/AUS_NSW.Williamtown.RAAF.947760_RMY.epw","lon":151.83,"lat":-32.8},{"title":"AUS_NT.Alice.Springs.Airport.943260_RMY","epw_url":"https://energyplus-weather.s3.amazonaws.com/southwest_pacific_wmo_region_5/AUS/AUS_NT.Alice.Springs.Airport.943260_RMY/AUS_NT.Alice.Springs.Airport.943260_RMY.epw","lon":133.88,"lat":-23.8},{"title":"AUS_NT.Darwin.941200_IWEC","epw_url":"https://energyplus-weather.s3.amazonaws.com/southwest_pacific_wmo_region_5/AUS/AUS_NT.Darwin.941200_IWEC/AUS_NT.Darwin.941200_IWEC.epw","lon":130.87,"lat":-12.4},{"title":"AUS_NT.Darwin.Airport.941200_RMY","epw_url":"https://energyplus-weather.s3.amazonaws.com/southwest_pacific_wmo_region_5/AUS/AUS_NT.Darwin.Airport.941200_RMY/AUS_NT.Darwin.Airport.941200_RMY.epw","lon":130.88,"lat":-12.42},{"title":"AUS_NT.Tennant.Creek.942380_RMY","epw_url":"https://energyplus-weather.s3.amazonaws.com/southwest_pacific_wmo_region_5/AUS/AUS_NT.Tennant.Creek.942380_RMY/AUS_NT.Tennant.Creek.942380_RMY.epw","lon":134.18,"lat":-19.63},{"title":"AUS_QLD.Amberley.945680_RMY","epw_url":"https://energyplus-weather.s3.amazonaws.com/southwest_pacific_wmo_region_5/AUS/AUS_QLD.Amberley.945680_RMY/AUS_QLD.Amberley.945680_RMY.epw","lon":152.72,"lat":-27.63},{"title":"AUS_QLD.Brisbane.945780_IWEC","epw_url":"https://energyplus-weather.s3.amazonaws.com/southwest_pacific_wmo_region_5/AUS/AUS_QLD.Brisbane.945780_IWEC/AUS_QLD.Brisbane.945780_IWEC.epw","lon":153.1,"lat":-27.38},{"title":"AUS_QLD.Brisbane.94578_RMY","epw_url":"https://energyplus-weather.s3.amazonaws.com/southwest_pacific_wmo_region_5/AUS/AUS_QLD.Brisbane.94578_RMY/AUS_QLD.Brisbane.94578_RMY.epw","lon":153.13,"lat":-27.38},{"title":"AUS_QLD.Cairns.Aero.948270_RMY","epw_url":"https://energyplus-weather.s3.amazonaws.com/southwest_pacific_wmo_region_5/AUS/AUS_QLD.Cairns.Aero.948270_RMY/AUS_QLD.Cairns.Aero.948270_RMY.epw","lon":145.75,"lat":-16.88},{"title":"AUS_QLD.Charleville.Aero.945100_RMY","epw_url":"https://energyplus-weather.s3.amazonaws.com/southwest_pacific_wmo_region_5/AUS/AUS_QLD.Charleville.Aero.945100_RMY/AUS_QLD.Charleville.Aero.945100_RMY.epw","lon":146.27,"lat":-26.42},{"title":"AUS_QLD.Gladstone.Airport.943810_RMY","epw_url":"https://energyplus-weather.s3.amazonaws.com/southwest_pacific_wmo_region_5/AUS/AUS_QLD.Gladstone.Airport.943810_RMY/AUS_QLD.Gladstone.Airport.943810_RMY.epw","lon":151.22,"lat":-23.87},{"title":"AUS_QLD.Longreach.Aero.943460_RMY","epw_url":"https://energyplus-weather.s3.amazonaws.com/southwest_pacific_wmo_region_5/AUS/AUS_QLD.Longreach.Aero.943460_RMY/AUS_QLD.Longreach.Aero.943460_RMY.epw","lon":144.28,"lat":-23.43},{"title":"AUS_QLD.Mackay.943670_RMY","epw_url":"https://energyplus-weather.s3.amazonaws.com/southwest_pacific_wmo_region_5/AUS/AUS_QLD.Mackay.943670_RMY/AUS_QLD.Mackay.943670_RMY.epw","lon":149.22,"lat":-21.12},{"title":"AUS_QLD.Mount.Isa.Aero.943320_RMY","epw_url":"https://energyplus-weather.s3.amazonaws.com/southwest_pacific_wmo_region_5/AUS/AUS_QLD.Mount.Isa.Aero.943320_RMY/AUS_QLD.Mount.Isa.Aero.943320_RMY.epw","lon":139.48,"lat":-20.68},{"title":"AUS_QLD.Oakey.Aero.945520_RMY","epw_url":"https://energyplus-weather.s3.amazonaws.com/southwest_pacific_wmo_region_5/AUS/AUS_QLD.Oakey.Aero.945520_RMY/AUS_QLD.Oakey.Aero.945520_RMY.epw","lon":151.73,"lat":-27.42},{"title":"AUS_QLD.Rockhampton.Aero.943740_RMY","epw_url":"https://energyplus-weather.s3.amazonaws.com/southwest_pacific_wmo_region_5/AUS/AUS_QLD.Rockhampton.Aero.943740_RMY/AUS_QLD.Rockhampton.Aero.943740_RMY.epw","lon":150.48,"lat":-23.38},{"title":"AUS_QLD.Townsville.Aero.942940_RMY","epw_url":"https://energyplus-weather.s3.amazonaws.com/southwest_pacific_wmo_region_5/AUS/AUS_QLD.Townsville.Aero.942940_RMY/AUS_QLD.Townsville.Aero.942940_RMY.epw","lon":146.77,"lat":-19.25},{"title":"AUS_QLD.Weipa.Aero.941700_RMY","epw_url":"https://energyplus-weather.s3.amazonaws.com/southwest_pacific_wmo_region_5/AUS/AUS_QLD.Weipa.Aero.941700_RMY/AUS_QLD.Weipa.Aero.941700_RMY.epw","lon":141.92,"lat":-12.68},{"title":"AUS_QLD.Willis.Island.942990_RMY","epw_url":"https://energyplus-weather.s3.amazonaws.com/southwest_pacific_wmo_region_5/AUS/AUS_QLD.Willis.Island.942990_RMY/AUS_QLD.Willis.Island.942990_RMY.epw","lon":149.97,"lat":-16.3},{"title":"AUS_SA.Adelaide-Kent.Town.946750_RMY","epw_url":"https://energyplus-weather.s3.amazonaws.com/southwest_pacific_wmo_region_5/AUS/AUS_SA.Adelaide-Kent.Town.946750_RMY/AUS_SA.Adelaide-Kent.Town.946750_RMY.epw","lon":138.62,"lat":-34.92},{"title":"AUS_SA.Adelaide.946720_IWEC","epw_url":"https://energyplus-weather.s3.amazonaws.com/southwest_pacific_wmo_region_5/AUS/AUS_SA.Adelaide.946720_IWEC/AUS_SA.Adelaide.946720_IWEC.epw","lon":138.52,"lat":-34.93},{"title":"AUS_SA.Ceduna.946530_RMY","epw_url":"https://energyplus-weather.s3.amazonaws.com/southwest_pacific_wmo_region_5/AUS/AUS_SA.Ceduna.946530_RMY/AUS_SA.Ceduna.946530_RMY.epw","lon":133.7,"lat":-32.13},{"title":"AUS_SA.Mount.Gambier.Aero.948210_RMY","epw_url":"https://energyplus-weather.s3.amazonaws.com/southwest_pacific_wmo_region_5/AUS/AUS_SA.Mount.Gambier.Aero.948210_RMY/AUS_SA.Mount.Gambier.Aero.948210_RMY.epw","lon":140.78,"lat":-37.73},{"title":"AUS_SA.Mt.Lofty.946780_RMY","epw_url":"https://energyplus-weather.s3.amazonaws.com/southwest_pacific_wmo_region_5/AUS/AUS_SA.Mt.Lofty.946780_RMY/AUS_SA.Mt.Lofty.946780_RMY.epw","lon":138.7,"lat":-34.97},{"title":"AUS_SA.Oodnadatta.Airport.944760_RMY","epw_url":"https://energyplus-weather.s3.amazonaws.com/southwest_pacific_wmo_region_5/AUS/AUS_SA.Oodnadatta.Airport.944760_RMY/AUS_SA.Oodnadatta.Airport.944760_RMY.epw","lon":135.45,"lat":-27.55},{"title":"AUS_SA.Woomera.Aerodrome.946590_RMY","epw_url":"https://energyplus-weather.s3.amazonaws.com/southwest_pacific_wmo_region_5/AUS/AUS_SA.Woomera.Aerodrome.946590_RMY/AUS_SA.Woomera.Aerodrome.946590_RMY.epw","lon":136.82,"lat":-31.15},{"title":"AUS_TAS.Hobart-Ellerslie.Road.949700_RMY","epw_url":"https://energyplus-weather.s3.amazonaws.com/southwest_pacific_wmo_region_5/AUS/AUS_TAS.Hobart-Ellerslie.Road.949700_RMY/AUS_TAS.Hobart-Ellerslie.Road.949700_RMY.epw","lon":147.33,"lat":-42.88},{"title":"AUS_TAS.Launceston-Ti.Tree.Bend.949690_RMY","epw_url":"https://energyplus-weather.s3.amazonaws.com/southwest_pacific_wmo_region_5/AUS/AUS_TAS.Launceston-Ti.Tree.Bend.949690_RMY/AUS_TAS.Launceston-Ti.Tree.Bend.949690_RMY.epw","lon":147.12,"lat":-41.42},{"title":"AUS_TAS.Launceston.Airport.949680_RMY","epw_url":"https://energyplus-weather.s3.amazonaws.com/southwest_pacific_wmo_region_5/AUS/AUS_TAS.Launceston.Airport.949680_RMY/AUS_TAS.Launceston.Airport.949680_RMY.epw","lon":147.2,"lat":-41.53},{"title":"AUS_TAS.Low.Head.959640_RMY","epw_url":"https://energyplus-weather.s3.amazonaws.com/southwest_pacific_wmo_region_5/AUS/AUS_TAS.Low.Head.959640_RMY/AUS_TAS.Low.Head.959640_RMY.epw","lon":146.78,"lat":-41.05},{"title":"AUS_VIC.Ballarat.Aerodrome.948520_RMY","epw_url":"https://energyplus-weather.s3.amazonaws.com/southwest_pacific_wmo_region_5/AUS/AUS_VIC.Ballarat.Aerodrome.948520_RMY/AUS_VIC.Ballarat.Aerodrome.948520_RMY.epw","lon":143.78,"lat":-37.52},{"title":"AUS_VIC.Cape.Otway.Lighthouse.948420_RMY","epw_url":"https://energyplus-weather.s3.amazonaws.com/southwest_pacific_wmo_region_5/AUS/AUS_VIC.Cape.Otway.Lighthouse.948420_RMY/AUS_VIC.Cape.Otway.Lighthouse.948420_RMY.epw","lon":143.52,"lat":-38.85},{"title":"AUS_VIC.East.Sale.Airport.949070_RMY","epw_url":"https://energyplus-weather.s3.amazonaws.com/southwest_pacific_wmo_region_5/AUS/AUS_VIC.East.Sale.Airport.949070_RMY/AUS_VIC.East.Sale.Airport.949070_RMY.epw","lon":147.13,"lat":-38.1},{"title":"AUS_VIC.Melbourne.948660_IWEC","epw_url":"https://energyplus-weather.s3.amazonaws.com/southwest_pacific_wmo_region_5/AUS/AUS_VIC.Melbourne.948660_IWEC/AUS_VIC.Melbourne.948660_IWEC.epw","lon":144.83,"lat":-37.67},{"title":"AUS_VIC.Melbourne.948680_RMY","epw_url":"https://energyplus-weather.s3.amazonaws.com/southwest_pacific_wmo_region_5/AUS/AUS_VIC.Melbourne.948680_RMY/AUS_VIC.Melbourne.948680_RMY.epw","lon":144.97,"lat":-37.82},{"title":"AUS_VIC.Mildura.Airport.946930_RMY","epw_url":"https://energyplus-weather.s3.amazonaws.com/southwest_pacific_wmo_region_5/AUS/AUS_VIC.Mildura.Airport.946930_RMY/AUS_VIC.Mildura.Airport.946930_RMY.epw","lon":142.08,"lat":-34.23},{"title":"AUS_VIC.Moorabbin.Airport.948700_RMY","epw_url":"https://energyplus-weather.s3.amazonaws.com/southwest_pacific_wmo_region_5/AUS/AUS_VIC.Moorabbin.Airport.948700_RMY/AUS_VIC.Moorabbin.Airport.948700_RMY.epw","lon":145.1,"lat":-37.98},{"title":"AUS_VIC.Tullamarine-Melbourne.Airport.948660_RMY","epw_url":"https://energyplus-weather.s3.amazonaws.com/southwest_pacific_wmo_region_5/AUS/AUS_VIC.Tullamarine-Melbourne.Airport.948660_RMY/AUS_VIC.Tullamarine-Melbourne.Airport.948660_RMY.epw","lon":144.85,"lat":-37.67},{"title":"AUS_VIC.Warrnambool.Airport.948370_RMY","epw_url":"https://energyplus-weather.s3.amazonaws.com/southwest_pacific_wmo_region_5/AUS/AUS_VIC.Warrnambool.Airport.948370_RMY/AUS_VIC.Warrnambool.Airport.948370_RMY.epw","lon":142.45,"lat":-38.28},{"title":"AUS_WA.Albany.Airport.948020_RMY","epw_url":"https://energyplus-weather.s3.amazonaws.com/southwest_pacific_wmo_region_5/AUS/AUS_WA.Albany.Airport.948020_RMY/AUS_WA.Albany.Airport.948020_RMY.epw","lon":117.8,"lat":-34.93},{"title":"AUS_WA.Broome.Airport.942030_RMY","epw_url":"https://energyplus-weather.s3.amazonaws.com/southwest_pacific_wmo_region_5/AUS/AUS_WA.Broome.Airport.942030_RMY/AUS_WA.Broome.Airport.942030_RMY.epw","lon":122.23,"lat":-17.95},{"title":"AUS_WA.Carnarvon.Airport.943000_RMY","epw_url":"https://energyplus-weather.s3.amazonaws.com/southwest_pacific_wmo_region_5/AUS/AUS_WA.Carnarvon.Airport.943000_RMY/AUS_WA.Carnarvon.Airport.943000_RMY.epw","lon":113.67,"lat":-24.88},{"title":"AUS_WA.Esperance.946380_RMY","epw_url":"https://energyplus-weather.s3.amazonaws.com/southwest_pacific_wmo_region_5/AUS/AUS_WA.Esperance.946380_RMY/AUS_WA.Esperance.946380_RMY.epw","lon":121.88,"lat":-33.83},{"title":"AUS_WA.Forrest.956460_RMY","epw_url":"https://energyplus-weather.s3.amazonaws.com/southwest_pacific_wmo_region_5/AUS/AUS_WA.Forrest.956460_RMY/AUS_WA.Forrest.956460_RMY.epw","lon":128.12,"lat":-30.83},{"title":"AUS_WA.Geraldton.Airport.944030_RMY","epw_url":"https://energyplus-weather.s3.amazonaws.com/southwest_pacific_wmo_region_5/AUS/AUS_WA.Geraldton.Airport.944030_RMY/AUS_WA.Geraldton.Airport.944030_RMY.epw","lon":114.7,"lat":-28.8},{"title":"AUS_WA.Giles.94461_RMY","epw_url":"https://energyplus-weather.s3.amazonaws.com/southwest_pacific_wmo_region_5/AUS/AUS_WA.Giles.94461_RMY/AUS_WA.Giles.94461_RMY.epw","lon":128.3,"lat":-25.03},{"title":"AUS_WA.Halls.Creek.Airport.942120_RMY","epw_url":"https://energyplus-weather.s3.amazonaws.com/southwest_pacific_wmo_region_5/AUS/AUS_WA.Halls.Creek.Airport.942120_RMY/AUS_WA.Halls.Creek.Airport.942120_RMY.epw","lon":127.67,"lat":-18.23},{"title":"AUS_WA.Kalamunda-Bickley.956100_RMY","epw_url":"https://energyplus-weather.s3.amazonaws.com/southwest_pacific_wmo_region_5/AUS/AUS_WA.Kalamunda-Bickley.956100_RMY/AUS_WA.Kalamunda-Bickley.956100_RMY.epw","lon":116.13,"lat":-32.02},{"title":"AUS_WA.Kalgoorlie-Boulder.Airport.946370_RMY","epw_url":"https://energyplus-weather.s3.amazonaws.com/southwest_pacific_wmo_region_5/AUS/AUS_WA.Kalgoorlie-Boulder.Airport.946370_RMY/AUS_WA.Kalgoorlie-Boulder.Airport.946370_RMY.epw","lon":121.45,"lat":-30.78},{"title":"AUS_WA.Katanning.946410_RMY","epw_url":"https://energyplus-weather.s3.amazonaws.com/southwest_pacific_wmo_region_5/AUS/AUS_WA.Katanning.946410_RMY/AUS_WA.Katanning.946410_RMY.epw","lon":117.6,"lat":-33.68},{"title":"AUS_WA.Learmonth.943020_IWEC","epw_url":"https://energyplus-weather.s3.amazonaws.com/southwest_pacific_wmo_region_5/AUS/AUS_WA.Learmonth.943020_IWEC/AUS_WA.Learmonth.943020_IWEC.epw","lon":114.08,"lat":-22.23},{"title":"AUS_WA.Learmonth.Airport.943020_RMY","epw_url":"https://energyplus-weather.s3.amazonaws.com/southwest_pacific_wmo_region_5/AUS/AUS_WA.Learmonth.Airport.943020_RMY/AUS_WA.Learmonth.Airport.943020_RMY.epw","lon":114.08,"lat":-22.23},{"title":"AUS_WA.Mandurah.946050_RMY","epw_url":"https://energyplus-weather.s3.amazonaws.com/southwest_pacific_wmo_region_5/AUS/AUS_WA.Mandurah.946050_RMY/AUS_WA.Mandurah.946050_RMY.epw","lon":115.72,"lat":-32.52},{"title":"AUS_WA.Manjimup.946170_RMY","epw_url":"https://energyplus-weather.s3.amazonaws.com/southwest_pacific_wmo_region_5/AUS/AUS_WA.Manjimup.946170_RMY/AUS_WA.Manjimup.946170_RMY.epw","lon":116.15,"lat":-34.25},{"title":"AUS_WA.Meekatharra.Airport.944300_RMY","epw_url":"https://energyplus-weather.s3.amazonaws.com/southwest_pacific_wmo_region_5/AUS/AUS_WA.Meekatharra.Airport.944300_RMY/AUS_WA.Meekatharra.Airport.944300_RMY.epw","lon":118.55,"lat":-26.62},{"title":"AUS_WA.Newman.Airport.943170_RMY","epw_url":"https://energyplus-weather.s3.amazonaws.com/southwest_pacific_wmo_region_5/AUS/AUS_WA.Newman.Airport.943170_RMY/AUS_WA.Newman.Airport.943170_RMY.epw","lon":119.8,"lat":-23.42},{"title":"AUS_WA.Perth.946100_IWEC","epw_url":"https://energyplus-weather.s3.amazonaws.com/southwest_pacific_wmo_region_5/AUS/AUS_WA.Perth.946100_IWEC/AUS_WA.Perth.946100_IWEC.epw","lon":115.95,"lat":-31.93},{"title":"AUS_WA.Perth.Airport.946100_RMY","epw_url":"https://energyplus-weather.s3.amazonaws.com/southwest_pacific_wmo_region_5/AUS/AUS_WA.Perth.Airport.946100_RMY/AUS_WA.Perth.Airport.946100_RMY.epw","lon":115.97,"lat":-31.93},{"title":"AUS_WA.Port.Hedland.943120_IWEC","epw_url":"https://energyplus-weather.s3.amazonaws.com/southwest_pacific_wmo_region_5/AUS/AUS_WA.Port.Hedland.943120_IWEC/AUS_WA.Port.Hedland.943120_IWEC.epw","lon":119.1,"lat":-20.23},{"title":"AUS_WA.Port.Hedland.Airport.943120_RMY","epw_url":"https://energyplus-weather.s3.amazonaws.com/southwest_pacific_wmo_region_5/AUS/AUS_WA.Port.Hedland.Airport.943120_RMY/AUS_WA.Port.Hedland.Airport.943120_RMY.epw","lon":118.63,"lat":-20.37},{"title":"AUS_WA.Swanbourne.946140_RMY","epw_url":"https://energyplus-weather.s3.amazonaws.com/southwest_pacific_wmo_region_5/AUS/AUS_WA.Swanbourne.946140_RMY/AUS_WA.Swanbourne.946140_RMY.epw","lon":115.77,"lat":-31.95},{"title":"AUS_WA.Wyndham.942140_RMY","epw_url":"https://energyplus-weather.s3.amazonaws.com/southwest_pacific_wmo_region_5/AUS/AUS_WA.Wyndham.942140_RMY/AUS_WA.Wyndham.942140_RMY.epw","lon":128.12,"lat":-15.48},{"title":"AUT_Graz.112400_IWEC","epw_url":"https://energyplus-weather.s3.amazonaws.com/europe_wmo_region_6/AUT/AUT_Graz.112400_IWEC/AUT_Graz.112400_IWEC.epw","lon":15.43,"lat":47},{"title":"AUT_Innsbruck.111200_IWEC","epw_url":"https://energyplus-weather.s3.amazonaws.com/europe_wmo_region_6/AUT/AUT_Innsbruck.111200_IWEC/AUT_Innsbruck.111200_IWEC.epw","lon":11.35,"lat":47.27},{"title":"AUT_Linz.110100_IWEC","epw_url":"https://energyplus-weather.s3.amazonaws.com/europe_wmo_region_6/AUT/AUT_Linz.110100_IWEC/AUT_Linz.110100_IWEC.epw","lon":14.2,"lat":48.23},{"title":"AUT_Salzburg.111500_IWEC","epw_url":"https://energyplus-weather.s3.amazonaws.com/europe_wmo_region_6/AUT/AUT_Salzburg.111500_IWEC/AUT_Salzburg.111500_IWEC.epw","lon":13,"lat":47.8},{"title":"AUT_Vienna.Schwechat.110360_IWEC","epw_url":"https://energyplus-weather.s3.amazonaws.com/europe_wmo_region_6/AUT/AUT_Vienna.Schwechat.110360_IWEC/AUT_Vienna.Schwechat.110360_IWEC.epw","lon":16.57,"lat":48.12},{"title":"Autazes_AM_BRA","epw_url":"https://energyplus-weather.s3.amazonaws.com/south_america_wmo_region_3/BRA/BRA_AM_Autazes.817320_INMET/BRA_AM_Autazes.817320_INMET.epw","lon":-59.13,"lat":-3.58},{"title":"Avar\u00e9_SP_BRA","epw_url":"https://energyplus-weather.s3.amazonaws.com/south_america_wmo_region_3/BRA/BRA_SP_Avare.869040_INMET/BRA_SP_Avare.869040_INMET.epw","lon":-48.93,"lat":-23.1},{"title":"Bacabal_MA_BRA","epw_url":"https://energyplus-weather.s3.amazonaws.com/south_america_wmo_region_3/BRA/BRA_MA_Bacabal.817900_INMET/BRA_MA_Bacabal.817900_INMET.epw","lon":-44.8,"lat":-4.24},{"title":"Bag\u00e9_RS_BRA","epw_url":"https://energyplus-weather.s3.amazonaws.com/south_america_wmo_region_3/BRA/BRA_RS_Bage.839800_INMET/BRA_RS_Bage.839800_INMET.epw","lon":-54.11,"lat":-31.33},{"title":"Balsas_MA_BRA","epw_url":"https://energyplus-weather.s3.amazonaws.com/south_america_wmo_region_3/BRA/BRA_MA_Balsas.819030_INMET/BRA_MA_Balsas.819030_INMET.epw","lon":-46.03,"lat":-7.46},{"title":"Barbalha_CE_BRA","epw_url":"https://energyplus-weather.s3.amazonaws.com/south_america_wmo_region_3/BRA/BRA_CE_Barbalha.819110_INMET/BRA_CE_Barbalha.819110_INMET.epw","lon":-39.27,"lat":-7.3},{"title":"Barcelos AP_AM_BRA","epw_url":"https://energyplus-weather.s3.amazonaws.com/south_america_wmo_region_3/BRA/BRA_AM_Barcelos.AP.816480_INMET/BRA_AM_Barcelos.AP.816480_INMET.epw","lon":-62.92,"lat":-0.99},{"title":"Barra AP_BA_BRA","epw_url":"https://energyplus-weather.s3.amazonaws.com/south_america_wmo_region_3/BRA/BRA_BA_Barra.AP.866340_INMET/BRA_BA_Barra.AP.866340_INMET.epw","lon":-43.14,"lat":-11.08},{"title":"Barra do Corda_MA_BRA","epw_url":"https://energyplus-weather.s3.amazonaws.com/south_america_wmo_region_3/BRA/BRA_MA_Barra.do.Corda.818250_INMET/BRA_MA_Barra.do.Corda.818250_INMET.epw","lon":-45.24,"lat":-5.51},{"title":"Barreiras_BA_BRA","epw_url":"https://energyplus-weather.s3.amazonaws.com/south_america_wmo_region_3/BRA/BRA_BA_Barreiras.866520_INMET/BRA_BA_Barreiras.866520_INMET.epw","lon":-44.99,"lat":-12.15},{"title":"Bauru_SP_BRA","epw_url":"https://energyplus-weather.s3.amazonaws.com/south_america_wmo_region_3/BRA/BRA_SP_Bauru.837220_INMET/BRA_SP_Bauru.837220_INMET.epw","lon":-49.06,"lat":-22.32},{"title":"BEL_Brussels.064510_IWEC","epw_url":"https://energyplus-weather.s3.amazonaws.com/europe_wmo_region_6/BEL/BEL_Brussels.064510_IWEC/BEL_Brussels.064510_IWEC.epw","lon":4.53,"lat":50.9},{"title":"BEL_Oostende.064070_IWEC","epw_url":"https://energyplus-weather.s3.amazonaws.com/europe_wmo_region_6/BEL/BEL_Oostende.064070_IWEC/BEL_Oostende.064070_IWEC.epw","lon":2.87,"lat":51.2},{"title":"BEL_Saint.Hubert.064760_IWEC","epw_url":"https://energyplus-weather.s3.amazonaws.com/europe_wmo_region_6/BEL/BEL_Saint.Hubert.064760_IWEC/BEL_Saint.Hubert.064760_IWEC.epw","lon":5.4,"lat":50.03},{"title":"Belmonte_BA_BRA","epw_url":"https://energyplus-weather.s3.amazonaws.com/south_america_wmo_region_3/BRA/BRA_BA_Belmonte.867440_INMET/BRA_BA_Belmonte.867440_INMET.epw","lon":-39.22,"lat":-16.09},{"title":"Belo Horizonte-Pampulha AP_MG_BRA","epw_url":"https://energyplus-weather.s3.amazonaws.com/south_america_wmo_region_3/BRA/BRA_MG_Belo.Horizonte-Pampulha.AP.835830_TRY.1995/BRA_MG_Belo.Horizonte-Pampulha.AP.835830_TRY.1995.epw","lon":-43.95,"lat":-19.85},{"title":"Belo Horizonte-Pampulha AP_MG_BRA","epw_url":"https://energyplus-weather.s3.amazonaws.com/south_america_wmo_region_3/BRA/BRA_MG_Belo.Horizonte-Pampulha.AP.868000_INMET/BRA_MG_Belo.Horizonte-Pampulha.AP.868000_INMET.epw","lon":-43.96,"lat":-19.82},{"title":"Bel\u00e9m-Ribeiro Intl AP_PA_BRA","epw_url":"https://energyplus-weather.s3.amazonaws.com/south_america_wmo_region_3/BRA/BRA_PA_Belem-Ribeiro.Intl.AP.821930_TRY.1964/BRA_PA_Belem-Ribeiro.Intl.AP.821930_TRY.1964.epw","lon":-48.48,"lat":-1.38},{"title":"Bel\u00e9m_PA_BRA","epw_url":"https://energyplus-weather.s3.amazonaws.com/south_america_wmo_region_3/BRA/BRA_PA_Belem.816800_INMET/BRA_PA_Belem.816800_INMET.epw","lon":-48.5,"lat":-1.46},{"title":"Bento Gon\u00e7alves_RS_BRA","epw_url":"https://energyplus-weather.s3.amazonaws.com/south_america_wmo_region_3/BRA/BRA_RS_Bento.Goncalves.869790_INMET/BRA_RS_Bento.Goncalves.869790_INMET.epw","lon":-51.52,"lat":-29.17},{"title":"BGD_Bogra.418830_SWERA","epw_url":"https://energyplus-weather.s3.amazonaws.com/asia_wmo_region_2/BGD/BGD_Bogra.418830_SWERA/BGD_Bogra.418830_SWERA.epw","lon":89.37,"lat":24.85},{"title":"BGD_Chittagong-Patenga.419780_SWERA","epw_url":"https://energyplus-weather.s3.amazonaws.com/asia_wmo_region_2/BGD/BGD_Chittagong-Patenga.419780_SWERA/BGD_Chittagong-Patenga.419780_SWERA.epw","lon":91.82,"lat":22.27},{"title":"BGD_Coxs.Bazar.419920_SWERA","epw_url":"https://energyplus-weather.s3.amazonaws.com/asia_wmo_region_2/BGD/BGD_Coxs.Bazar.419920_SWERA/BGD_Coxs.Bazar.419920_SWERA.epw","lon":91.97,"lat":21.43},{"title":"BGD_Dhaka.419230_SWERA","epw_url":"https://energyplus-weather.s3.amazonaws.com/asia_wmo_region_2/BGD/BGD_Dhaka.419230_SWERA/BGD_Dhaka.419230_SWERA.epw","lon":90.38,"lat":23.77},{"title":"BGD_Ishurdi.419070_SWERA","epw_url":"https://energyplus-weather.s3.amazonaws.com/asia_wmo_region_2/BGD/BGD_Ishurdi.419070_SWERA/BGD_Ishurdi.419070_SWERA.epw","lon":89.05,"lat":24.13},{"title":"BGD_Jessore.419360_SWERA","epw_url":"https://energyplus-weather.s3.amazonaws.com/asia_wmo_region_2/BGD/BGD_Jessore.419360_SWERA/BGD_Jessore.419360_SWERA.epw","lon":89.17,"lat":23.18},{"title":"BGD_Rangpur.418590_SWERA","epw_url":"https://energyplus-weather.s3.amazonaws.com/asia_wmo_region_2/BGD/BGD_Rangpur.418590_SWERA/BGD_Rangpur.418590_SWERA.epw","lon":89.23,"lat":25.73},{"title":"BGD_Sylhet.418910_SWERA","epw_url":"https://energyplus-weather.s3.amazonaws.com/asia_wmo_region_2/BGD/BGD_Sylhet.418910_SWERA/BGD_Sylhet.418910_SWERA.epw","lon":91.88,"lat":24.9},{"title":"BGR_Plovdiv.156250_IWEC","epw_url":"https://energyplus-weather.s3.amazonaws.com/europe_wmo_region_6/BGR/BGR_Plovdiv.156250_IWEC/BGR_Plovdiv.156250_IWEC.epw","lon":24.75,"lat":42.13},{"title":"BGR_Sofia.156140_IWEC","epw_url":"https://energyplus-weather.s3.amazonaws.com/europe_wmo_region_6/BGR/BGR_Sofia.156140_IWEC/BGR_Sofia.156140_IWEC.epw","lon":23.38,"lat":42.73},{"title":"BGR_Varna.155520_IWEC","epw_url":"https://energyplus-weather.s3.amazonaws.com/europe_wmo_region_6/BGR/BGR_Varna.155520_IWEC/BGR_Varna.155520_IWEC.epw","lon":27.92,"lat":43.2},{"title":"BIH_Banja.Luka.132420_IWEC","epw_url":"https://energyplus-weather.s3.amazonaws.com/europe_wmo_region_6/BIH/BIH_Banja.Luka.132420_IWEC/BIH_Banja.Luka.132420_IWEC.epw","lon":17.22,"lat":44.78},{"title":"BLR_Minsk.268500_IWEC","epw_url":"https://energyplus-weather.s3.amazonaws.com/europe_wmo_region_6/BLR/BLR_Minsk.268500_IWEC/BLR_Minsk.268500_IWEC.epw","lon":27.53,"lat":53.87},{"title":"BLZ_Belize.785830_SWERA","epw_url":"https://energyplus-weather.s3.amazonaws.com/north_and_central_america_wmo_region_4/BLZ/BLZ_Belize.785830_SWERA/BLZ_Belize.785830_SWERA.epw","lon":-88.3,"lat":17.53},{"title":"Boa Vista_RR_BRA","epw_url":"https://energyplus-weather.s3.amazonaws.com/south_america_wmo_region_3/BRA/BRA_RR_Boa.Vista.816150_INMET/BRA_RR_Boa.Vista.816150_INMET.epw","lon":-60.65,"lat":2.8},{"title":"BOL_La.Paz.852010_IWEC","epw_url":"https://energyplus-weather.s3.amazonaws.com/south_america_wmo_region_3/BOL/BOL_La.Paz.852010_IWEC/BOL_La.Paz.852010_IWEC.epw","lon":-68.18,"lat":-16.52},{"title":"Bom Jesus da Lapa AP_BA_BRA","epw_url":"https://energyplus-weather.s3.amazonaws.com/south_america_wmo_region_3/BRA/BRA_BA_Bom.Jesus.da.Lapa.AP.866720_INMET/BRA_BA_Bom.Jesus.da.Lapa.AP.866720_INMET.epw","lon":-43.42,"lat":-13.26},{"title":"Bom Jesus do Piaui_PI_BRA","epw_url":"https://energyplus-weather.s3.amazonaws.com/south_america_wmo_region_3/BRA/BRA_PI_Bom.Jesus.do.Piaui.829750_INMET/BRA_PI_Bom.Jesus.do.Piaui.829750_INMET.epw","lon":-44.36,"lat":-9.07},{"title":"BRA_Belem-Val.de.Caes.821930_SWERA","epw_url":"https://energyplus-weather.s3.amazonaws.com/south_america_wmo_region_3/BRA/BRA_Belem-Val.de.Caes.821930_SWERA/BRA_Belem-Val.de.Caes.821930_SWERA.epw","lon":-48.48,"lat":-1.38},{"title":"BRA_Belem.821930_IWEC","epw_url":"https://energyplus-weather.s3.amazonaws.com/south_america_wmo_region_3/BRA/BRA_Belem.821930_IWEC/BRA_Belem.821930_IWEC.epw","lon":-48.48,"lat":-1.38},{"title":"BRA_Belo.Horizonte-Pampulha.835830_SWERA","epw_url":"https://energyplus-weather.s3.amazonaws.com/south_america_wmo_region_3/BRA/BRA_Belo.Horizonte-Pampulha.835830_SWERA/BRA_Belo.Horizonte-Pampulha.835830_SWERA.epw","lon":-43.95,"lat":-19.85},{"title":"BRA_Boa.Vista.820220_SWERA","epw_url":"https://energyplus-weather.s3.amazonaws.com/south_america_wmo_region_3/BRA/BRA_Boa.Vista.820220_SWERA/BRA_Boa.Vista.820220_SWERA.epw","lon":-60.7,"lat":2.83},{"title":"BRA_Bom.Jesus.da.Lapa.832880_SWERA","epw_url":"https://energyplus-weather.s3.amazonaws.com/south_america_wmo_region_3/BRA/BRA_Bom.Jesus.da.Lapa.832880_SWERA/BRA_Bom.Jesus.da.Lapa.832880_SWERA.epw","lon":-43.42,"lat":-13.27},{"title":"BRA_Brasilia.833780_IWEC","epw_url":"https://energyplus-weather.s3.amazonaws.com/south_america_wmo_region_3/BRA/BRA_Brasilia.833780_IWEC/BRA_Brasilia.833780_IWEC.epw","lon":-47.93,"lat":-15.87},{"title":"BRA_Brasilia.833780_SWERA","epw_url":"https://energyplus-weather.s3.amazonaws.com/south_america_wmo_region_3/BRA/BRA_Brasilia.833780_SWERA/BRA_Brasilia.833780_SWERA.epw","lon":-47.93,"lat":-15.87},{"title":"BRA_Campo.Grande.836120_SWERA","epw_url":"https://energyplus-weather.s3.amazonaws.com/south_america_wmo_region_3/BRA/BRA_Campo.Grande.836120_SWERA/BRA_Campo.Grande.836120_SWERA.epw","lon":-54.67,"lat":-20.47},{"title":"BRA_Cuiaba-Marechal.Ron.833620_SWERA","epw_url":"https://energyplus-weather.s3.amazonaws.com/south_america_wmo_region_3/BRA/BRA_Cuiaba-Marechal.Ron.833620_SWERA/BRA_Cuiaba-Marechal.Ron.833620_SWERA.epw","lon":-56.1,"lat":-15.65},{"title":"BRA_Curitiba-Afonso.Pen.838400_SWERA","epw_url":"https://energyplus-weather.s3.amazonaws.com/south_america_wmo_region_3/BRA/BRA_Curitiba-Afonso.Pen.838400_SWERA/BRA_Curitiba-Afonso.Pen.838400_SWERA.epw","lon":-49.17,"lat":-25.52},{"title":"BRA_Florianopolis.838990_SWERA","epw_url":"https://energyplus-weather.s3.amazonaws.com/south_america_wmo_region_3/BRA/BRA_Florianopolis.838990_SWERA/BRA_Florianopolis.838990_SWERA.epw","lon":-48.55,"lat":-27.67},{"title":"BRA_Fortaleza-Pinto.Mar.823980_SWERA","epw_url":"https://energyplus-weather.s3.amazonaws.com/south_america_wmo_region_3/BRA/BRA_Fortaleza-Pinto.Mar.823980_SWERA/BRA_Fortaleza-Pinto.Mar.823980_SWERA.epw","lon":-38.53,"lat":-3.78},{"title":"BRA_Jacareacanga.826400_SWERA","epw_url":"https://energyplus-weather.s3.amazonaws.com/south_america_wmo_region_3/BRA/BRA_Jacareacanga.826400_SWERA/BRA_Jacareacanga.826400_SWERA.epw","lon":-57.73,"lat":-6.27},{"title":"BRA_Manaus.823310_SWERA","epw_url":"https://energyplus-weather.s3.amazonaws.com/south_america_wmo_region_3/BRA/BRA_Manaus.823310_SWERA/BRA_Manaus.823310_SWERA.epw","lon":-60.02,"lat":-3.13},{"title":"BRA_Petrolina.829840_SWERA","epw_url":"https://energyplus-weather.s3.amazonaws.com/south_america_wmo_region_3/BRA/BRA_Petrolina.829840_SWERA/BRA_Petrolina.829840_SWERA.epw","lon":-40.55,"lat":-9.35},{"title":"BRA_Porto.Nacional.830630_SWERA","epw_url":"https://energyplus-weather.s3.amazonaws.com/south_america_wmo_region_3/BRA/BRA_Porto.Nacional.830630_SWERA/BRA_Porto.Nacional.830630_SWERA.epw","lon":-48.4,"lat":-10.7},{"title":"BRA_Porto.Velho.828240_SWERA","epw_url":"https://energyplus-weather.s3.amazonaws.com/south_america_wmo_region_3/BRA/BRA_Porto.Velho.828240_SWERA/BRA_Porto.Velho.828240_SWERA.epw","lon":-63.92,"lat":-8.77},{"title":"BRA_Recife-Guararapes.828990_SWERA","epw_url":"https://energyplus-weather.s3.amazonaws.com/south_america_wmo_region_3/BRA/BRA_Recife-Guararapes.828990_SWERA/BRA_Recife-Guararapes.828990_SWERA.epw","lon":-34.85,"lat":-8.07},{"title":"BRA_Recife.828990_IWEC","epw_url":"https://energyplus-weather.s3.amazonaws.com/south_america_wmo_region_3/BRA/BRA_Recife.828990_IWEC/BRA_Recife.828990_IWEC.epw","lon":-34.88,"lat":-8.1},{"title":"BRA_Rio.de.Janeiro-Santos.Dumont.837550_SWERA","epw_url":"https://energyplus-weather.s3.amazonaws.com/south_america_wmo_region_3/BRA/BRA_Rio.de.Janeiro-Santos.Dumont.837550_SWERA/BRA_Rio.de.Janeiro-Santos.Dumont.837550_SWERA.epw","lon":-43.17,"lat":-22.9},{"title":"BRA_Salvador.832290_SWERA","epw_url":"https://energyplus-weather.s3.amazonaws.com/south_america_wmo_region_3/BRA/BRA_Salvador.832290_SWERA/BRA_Salvador.832290_SWERA.epw","lon":-38.52,"lat":-13.02},{"title":"BRA_Santa.Maria.839360_SWERA","epw_url":"https://energyplus-weather.s3.amazonaws.com/south_america_wmo_region_3/BRA/BRA_Santa.Maria.839360_SWERA/BRA_Santa.Maria.839360_SWERA.epw","lon":-53.7,"lat":-29.7},{"title":"BRA_Sao.Paulo-Congonhas.837800_SWERA","epw_url":"https://energyplus-weather.s3.amazonaws.com/south_america_wmo_region_3/BRA/BRA_Sao.Paulo-Congonhas.837800_SWERA/BRA_Sao.Paulo-Congonhas.837800_SWERA.epw","lon":-46.65,"lat":-23.62},{"title":"BRA_Sao.Paulo.837800_IWEC","epw_url":"https://energyplus-weather.s3.amazonaws.com/south_america_wmo_region_3/BRA/BRA_Sao.Paulo.837800_IWEC/BRA_Sao.Paulo.837800_IWEC.epw","lon":-46.65,"lat":-23.62},{"title":"Bragan\u00e7a_PA_BRA","epw_url":"https://energyplus-weather.s3.amazonaws.com/south_america_wmo_region_3/BRA/BRA_PA_Braganca.816850_INMET/BRA_PA_Braganca.816850_INMET.epw","lon":-46.78,"lat":-1.05},{"title":"Brasilia_DF_BRA","epw_url":"https://energyplus-weather.s3.amazonaws.com/south_america_wmo_region_3/BRA/BRA_DF_Brasilia.867150_INMET/BRA_DF_Brasilia.867150_INMET.epw","lon":-47.93,"lat":-15.78},{"title":"Bras\u00edlia-Kubitschek Intl AP_DF_BRA","epw_url":"https://energyplus-weather.s3.amazonaws.com/south_america_wmo_region_3/BRA/BRA_DF_Brasilia-Kubitschek.Intl.AP.833780_TRY.1962/BRA_DF_Brasilia-Kubitschek.Intl.AP.833780_TRY.1962.epw","lon":-47.92,"lat":-15.87},{"title":"Brejo Grande_SE_BRA","epw_url":"https://energyplus-weather.s3.amazonaws.com/south_america_wmo_region_3/BRA/BRA_SE_Brejo.Grande.866180_INMET/BRA_SE_Brejo.Grande.866180_INMET.epw","lon":-36.48,"lat":-10.47},{"title":"BRN_Bandar.Seri.Begawan.963150_IWEC","epw_url":"https://energyplus-weather.s3.amazonaws.com/southwest_pacific_wmo_region_5/BRN/BRN_Bandar.Seri.Begawan.963150_IWEC/BRN_Bandar.Seri.Begawan.963150_IWEC.epw","lon":114.93,"lat":4.93},{"title":"Brumado_BA_BRA","epw_url":"https://energyplus-weather.s3.amazonaws.com/south_america_wmo_region_3/BRA/BRA_BA_Brumado.866960_INMET/BRA_BA_Brumado.866960_INMET.epw","lon":-41.67,"lat":-14.18},{"title":"Buriticupu_MA_BRA","epw_url":"https://energyplus-weather.s3.amazonaws.com/south_america_wmo_region_3/BRA/BRA_MA_Buriticupu.817880_INMET/BRA_MA_Buriticupu.817880_INMET.epw","lon":-46.45,"lat":-4.32},{"title":"Buritirama_BA_BRA","epw_url":"https://energyplus-weather.s3.amazonaws.com/south_america_wmo_region_3/BRA/BRA_BA_Buritirama.AP.866090_INMET/BRA_BA_Buritirama.AP.866090_INMET.epw","lon":-43.65,"lat":-10.72},{"title":"Buritis_MG_BRA","epw_url":"https://energyplus-weather.s3.amazonaws.com/south_america_wmo_region_3/BRA/BRA_MG_Buritis.867180_INMET/BRA_MG_Buritis.867180_INMET.epw","lon":-46.42,"lat":-15.62},{"title":"Cabaceiras_PB_BRA","epw_url":"https://energyplus-weather.s3.amazonaws.com/south_america_wmo_region_3/BRA/BRA_PB_Cabaceiras.819150_INMET/BRA_PB_Cabaceiras.819150_INMET.epw","lon":-36.29,"lat":-7.48},{"title":"Cabrob\u00f3_PE_BRA","epw_url":"https://energyplus-weather.s3.amazonaws.com/south_america_wmo_region_3/BRA/BRA_PE_Cabrobo.828860_INMET/BRA_PE_Cabrobo.828860_INMET.epw","lon":-39.31,"lat":-8.5},{"title":"Cacoal_RO_BRA","epw_url":"https://energyplus-weather.s3.amazonaws.com/south_america_wmo_region_3/BRA/BRA_RO_Cacoal.866220_INMET/BRA_RO_Cacoal.866220_INMET.epw","lon":-61.43,"lat":-11.45},{"title":"Caiap\u00f4nia_GO_BRA","epw_url":"https://energyplus-weather.s3.amazonaws.com/south_america_wmo_region_3/BRA/BRA_GO_Caiaponia.867300_INMET/BRA_GO_Caiaponia.867300_INMET.epw","lon":-51.81,"lat":-16.96},{"title":"Caic\u00f3_RN_BRA","epw_url":"https://energyplus-weather.s3.amazonaws.com/south_america_wmo_region_3/BRA/BRA_RN_Caico.818750_INMET/BRA_RN_Caico.818750_INMET.epw","lon":-37.1,"lat":-6.46},{"title":"Caldas_MG_BRA","epw_url":"https://energyplus-weather.s3.amazonaws.com/south_america_wmo_region_3/BRA/BRA_MG_Caldas.868460_INMET/BRA_MG_Caldas.868460_INMET.epw","lon":-46.39,"lat":-21.92},{"title":"Camaqu\u00e3_RS_BRA","epw_url":"https://energyplus-weather.s3.amazonaws.com/south_america_wmo_region_3/BRA/BRA_RS_Camaqua.869890_INMET/BRA_RS_Camaqua.869890_INMET.epw","lon":-51.83,"lat":-30.81},{"title":"Camaratuba_PB_BRA","epw_url":"https://energyplus-weather.s3.amazonaws.com/south_america_wmo_region_3/BRA/BRA_PB_Camaratuba.818780_INMET/BRA_PB_Camaratuba.818780_INMET.epw","lon":-35.13,"lat":-6.61},{"title":"Cambuci_RJ_BRA","epw_url":"https://energyplus-weather.s3.amazonaws.com/south_america_wmo_region_3/BRA/BRA_RJ_Cambuci.868540_INMET/BRA_RJ_Cambuci.868540_INMET.epw","lon":-41.91,"lat":-21.58},{"title":"Camet\u00e1_PA_BRA","epw_url":"https://energyplus-weather.s3.amazonaws.com/south_america_wmo_region_3/BRA/BRA_PA_Cameta.817100_INMET/BRA_PA_Cameta.817100_INMET.epw","lon":-49.49,"lat":-2.25},{"title":"Campina Grande_PB_BRA","epw_url":"https://energyplus-weather.s3.amazonaws.com/south_america_wmo_region_3/BRA/BRA_PB_Campina.Grande.819160_INMET/BRA_PB_Campina.Grande.819160_INMET.epw","lon":-35.88,"lat":-7.23},{"title":"Campinas_SP_BRA","epw_url":"https://energyplus-weather.s3.amazonaws.com/south_america_wmo_region_3/BRA/BRA_SP_Campinas.837210_INMET/BRA_SP_Campinas.837210_INMET.epw","lon":-47.06,"lat":-22.82},{"title":"Campo Grande Intl AP_MS_BRA","epw_url":"https://energyplus-weather.s3.amazonaws.com/south_america_wmo_region_3/BRA/BRA_MS_Campo.Grande.Intl.AP.868100_INMET/BRA_MS_Campo.Grande.Intl.AP.868100_INMET.epw","lon":-54.65,"lat":-20.44},{"title":"Campo Novo do Parecis_MT_BRA","epw_url":"https://energyplus-weather.s3.amazonaws.com/south_america_wmo_region_3/BRA/BRA_MT_Campo.Novo.do.Parecis.866620_INMET/BRA_MT_Campo.Novo.do.Parecis.866620_INMET.epw","lon":-57.89,"lat":-13.68},{"title":"Campo Verde_MT_BRA","epw_url":"https://energyplus-weather.s3.amazonaws.com/south_america_wmo_region_3/BRA/BRA_MT_Campo.Verde.867070_INMET/BRA_MT_Campo.Verde.867070_INMET.epw","lon":-55.17,"lat":-15.55},{"title":"Campos do Jord\u00e3o_SP_BRA","epw_url":"https://energyplus-weather.s3.amazonaws.com/south_america_wmo_region_3/BRA/BRA_SP_Campos.do.Jordao.868720_INMET/BRA_SP_Campos.do.Jordao.868720_INMET.epw","lon":-45.59,"lat":-22.74},{"title":"Campos dos Goytacazes_RJ_BRA","epw_url":"https://energyplus-weather.s3.amazonaws.com/south_america_wmo_region_3/BRA/BRA_RJ_Campos.dos.Goytacazes.868550_INMET/BRA_RJ_Campos.dos.Goytacazes.868550_INMET.epw","lon":-41.32,"lat":-21.75},{"title":"Campos Sales_CE_BRA","epw_url":"https://energyplus-weather.s3.amazonaws.com/south_america_wmo_region_3/BRA/BRA_CE_Campos.Sales.827770_INMET/BRA_CE_Campos.Sales.827770_INMET.epw","lon":-40.36,"lat":-7.08},{"title":"CAN_AB_Calgary.718770_CWEC","epw_url":"https://energyplus-weather.s3.amazonaws.com/north_and_central_america_wmo_region_4/CAN/AB/CAN_AB_Calgary.718770_CWEC/CAN_AB_Calgary.718770_CWEC.epw","lon":-114.02,"lat":51.12},{"title":"CAN_AB_Edmonton.711230_CWEC","epw_url":"https://energyplus-weather.s3.amazonaws.com/north_and_central_america_wmo_region_4/CAN/AB/CAN_AB_Edmonton.711230_CWEC/CAN_AB_Edmonton.711230_CWEC.epw","lon":-114.1,"lat":53.53},{"title":"CAN_AB_Fort.McMurray.719320_CWEC","epw_url":"https://energyplus-weather.s3.amazonaws.com/north_and_central_america_wmo_region_4/CAN/AB/CAN_AB_Fort.McMurray.719320_CWEC/CAN_AB_Fort.McMurray.719320_CWEC.epw","lon":-111.22,"lat":56.65},{"title":"CAN_AB_Grande.Prairie.719400_CWEC","epw_url":"https://energyplus-weather.s3.amazonaws.com/north_and_central_america_wmo_region_4/CAN/AB/CAN_AB_Grande.Prairie.719400_CWEC/CAN_AB_Grande.Prairie.719400_CWEC.epw","lon":-118.88,"lat":55.18},{"title":"CAN_AB_Lethbridge.712430_CWEC","epw_url":"https://energyplus-weather.s3.amazonaws.com/north_and_central_america_wmo_region_4/CAN/AB/CAN_AB_Lethbridge.712430_CWEC/CAN_AB_Lethbridge.712430_CWEC.epw","lon":-112.8,"lat":49.63},{"title":"CAN_AB_Medicine.Hat.718720_CWEC","epw_url":"https://energyplus-weather.s3.amazonaws.com/north_and_central_america_wmo_region_4/CAN/AB/CAN_AB_Medicine.Hat.718720_CWEC/CAN_AB_Medicine.Hat.718720_CWEC.epw","lon":-110.72,"lat":50.02},{"title":"CAN_BC_Abbotsford.711080_CWEC","epw_url":"https://energyplus-weather.s3.amazonaws.com/north_and_central_america_wmo_region_4/CAN/BC/CAN_BC_Abbotsford.711080_CWEC/CAN_BC_Abbotsford.711080_CWEC.epw","lon":-122.37,"lat":49.03},{"title":"CAN_BC_Comox.718930_CWEC","epw_url":"https://energyplus-weather.s3.amazonaws.com/north_and_central_america_wmo_region_4/CAN/BC/CAN_BC_Comox.718930_CWEC/CAN_BC_Comox.718930_CWEC.epw","lon":-124.9,"lat":49.72},{"title":"CAN_BC_Cranbrook.718800_CWEC","epw_url":"https://energyplus-weather.s3.amazonaws.com/north_and_central_america_wmo_region_4/CAN/BC/CAN_BC_Cranbrook.718800_CWEC/CAN_BC_Cranbrook.718800_CWEC.epw","lon":-115.78,"lat":49.6},{"title":"CAN_BC_Fort.St.John.719430_CWEC","epw_url":"https://energyplus-weather.s3.amazonaws.com/north_and_central_america_wmo_region_4/CAN/BC/CAN_BC_Fort.St.John.719430_CWEC/CAN_BC_Fort.St.John.719430_CWEC.epw","lon":-120.73,"lat":56.23},{"title":"CAN_BC_Kamloops.718870_CWEC","epw_url":"https://energyplus-weather.s3.amazonaws.com/north_and_central_america_wmo_region_4/CAN/BC/CAN_BC_Kamloops.718870_CWEC/CAN_BC_Kamloops.718870_CWEC.epw","lon":-120.45,"lat":50.7},{"title":"CAN_BC_Port.Hardy.711090_CWEC","epw_url":"https://energyplus-weather.s3.amazonaws.com/north_and_central_america_wmo_region_4/CAN/BC/CAN_BC_Port.Hardy.711090_CWEC/CAN_BC_Port.Hardy.711090_CWEC.epw","lon":-127.37,"lat":50.68},{"title":"CAN_BC_Prince.George.718960_CWEC","epw_url":"https://energyplus-weather.s3.amazonaws.com/north_and_central_america_wmo_region_4/CAN/BC/CAN_BC_Prince.George.718960_CWEC/CAN_BC_Prince.George.718960_CWEC.epw","lon":-122.68,"lat":53.88},{"title":"CAN_BC_Prince.Rupert.718980_CWEC","epw_url":"https://energyplus-weather.s3.amazonaws.com/north_and_central_america_wmo_region_4/CAN/BC/CAN_BC_Prince.Rupert.718980_CWEC/CAN_BC_Prince.Rupert.718980_CWEC.epw","lon":-130.43,"lat":54.3},{"title":"CAN_BC_Sandspit.711010_CWEC","epw_url":"https://energyplus-weather.s3.amazonaws.com/north_and_central_america_wmo_region_4/CAN/BC/CAN_BC_Sandspit.711010_CWEC/CAN_BC_Sandspit.711010_CWEC.epw","lon":-131.82,"lat":53.25},{"title":"CAN_BC_Smithers.719500_CWEC","epw_url":"https://energyplus-weather.s3.amazonaws.com/north_and_central_america_wmo_region_4/CAN/BC/CAN_BC_Smithers.719500_CWEC/CAN_BC_Smithers.719500_CWEC.epw","lon":-127.18,"lat":54.82},{"title":"CAN_BC_Summerland.717680_CWEC","epw_url":"https://energyplus-weather.s3.amazonaws.com/north_and_central_america_wmo_region_4/CAN/BC/CAN_BC_Summerland.717680_CWEC/CAN_BC_Summerland.717680_CWEC.epw","lon":-119.65,"lat":49.57},{"title":"CAN_BC_Vancouver.718920_CWEC","epw_url":"https://energyplus-weather.s3.amazonaws.com/north_and_central_america_wmo_region_4/CAN/BC/CAN_BC_Vancouver.718920_CWEC/CAN_BC_Vancouver.718920_CWEC.epw","lon":-123.17,"lat":49.18},{"title":"CAN_BC_Victoria.717990_CWEC","epw_url":"https://energyplus-weather.s3.amazonaws.com/north_and_central_america_wmo_region_4/CAN/BC/CAN_BC_Victoria.717990_CWEC/CAN_BC_Victoria.717990_CWEC.epw","lon":-123.43,"lat":48.65},{"title":"CAN_MB_Brandon.711400_CWEC","epw_url":"https://energyplus-weather.s3.amazonaws.com/north_and_central_america_wmo_region_4/CAN/MB/CAN_MB_Brandon.711400_CWEC/CAN_MB_Brandon.711400_CWEC.epw","lon":-99.95,"lat":49.92},{"title":"CAN_MB_Churchill.719130_CWEC","epw_url":"https://energyplus-weather.s3.amazonaws.com/north_and_central_america_wmo_region_4/CAN/MB/CAN_MB_Churchill.719130_CWEC/CAN_MB_Churchill.719130_CWEC.epw","lon":-94.07,"lat":58.75},{"title":"CAN_MB_The.Pas.718670_CWEC","epw_url":"https://energyplus-weather.s3.amazonaws.com/north_and_central_america_wmo_region_4/CAN/MB/CAN_MB_The.Pas.718670_CWEC/CAN_MB_The.Pas.718670_CWEC.epw","lon":-101.1,"lat":53.97},{"title":"CAN_MB_Winnipeg.718520_CWEC","epw_url":"https://energyplus-weather.s3.amazonaws.com/north_and_central_america_wmo_region_4/CAN/MB/CAN_MB_Winnipeg.718520_CWEC/CAN_MB_Winnipeg.718520_CWEC.epw","lon":-97.23,"lat":49.9},{"title":"CAN_NB_Fredericton.717000_CWEC","epw_url":"https://energyplus-weather.s3.amazonaws.com/north_and_central_america_wmo_region_4/CAN/NB/CAN_NB_Fredericton.717000_CWEC/CAN_NB_Fredericton.717000_CWEC.epw","lon":-66.53,"lat":45.87},{"title":"CAN_NB_Miramichi.717440_CWEC","epw_url":"https://energyplus-weather.s3.amazonaws.com/north_and_central_america_wmo_region_4/CAN/NB/CAN_NB_Miramichi.717440_CWEC/CAN_NB_Miramichi.717440_CWEC.epw","lon":-65.45,"lat":47.02},{"title":"CAN_NB_Saint.John.716090_CWEC","epw_url":"https://energyplus-weather.s3.amazonaws.com/north_and_central_america_wmo_region_4/CAN/NB/CAN_NB_Saint.John.716090_CWEC/CAN_NB_Saint.John.716090_CWEC.epw","lon":-65.88,"lat":45.32},{"title":"CAN_NF_Battle.Harbour.718170_CWEC","epw_url":"https://energyplus-weather.s3.amazonaws.com/north_and_central_america_wmo_region_4/CAN/NF/CAN_NF_Battle.Harbour.718170_CWEC/CAN_NF_Battle.Harbour.718170_CWEC.epw","lon":-55.83,"lat":52.3},{"title":"CAN_NF_Gander.718030_CWEC","epw_url":"https://energyplus-weather.s3.amazonaws.com/north_and_central_america_wmo_region_4/CAN/NF/CAN_NF_Gander.718030_CWEC/CAN_NF_Gander.718030_CWEC.epw","lon":-54.57,"lat":48.95},{"title":"CAN_NF_Goose.718160_CWEC","epw_url":"https://energyplus-weather.s3.amazonaws.com/north_and_central_america_wmo_region_4/CAN/NF/CAN_NF_Goose.718160_CWEC/CAN_NF_Goose.718160_CWEC.epw","lon":-60.37,"lat":53.32},{"title":"CAN_NF_St.Johns.718010_CWEC","epw_url":"https://energyplus-weather.s3.amazonaws.com/north_and_central_america_wmo_region_4/CAN/NF/CAN_NF_St.Johns.718010_CWEC/CAN_NF_St.Johns.718010_CWEC.epw","lon":-52.73,"lat":47.62},{"title":"CAN_NF_Stephenville.718150_CWEC","epw_url":"https://energyplus-weather.s3.amazonaws.com/north_and_central_america_wmo_region_4/CAN/NF/CAN_NF_Stephenville.718150_CWEC/CAN_NF_Stephenville.718150_CWEC.epw","lon":-58.55,"lat":48.53},{"title":"CAN_NS_Greenwood.713970_CWEC","epw_url":"https://energyplus-weather.s3.amazonaws.com/north_and_central_america_wmo_region_4/CAN/NS/CAN_NS_Greenwood.713970_CWEC/CAN_NS_Greenwood.713970_CWEC.epw","lon":-64.92,"lat":44.98},{"title":"CAN_NS_Sable.Island.716000_CWEC","epw_url":"https://energyplus-weather.s3.amazonaws.com/north_and_central_america_wmo_region_4/CAN/NS/CAN_NS_Sable.Island.716000_CWEC/CAN_NS_Sable.Island.716000_CWEC.epw","lon":-60.02,"lat":43.93},{"title":"CAN_NS_Shearwater.716010_CWEC","epw_url":"https://energyplus-weather.s3.amazonaws.com/north_and_central_america_wmo_region_4/CAN/NS/CAN_NS_Shearwater.716010_CWEC/CAN_NS_Shearwater.716010_CWEC.epw","lon":-63.5,"lat":44.63},{"title":"CAN_NS_Sydney.717070_CWEC","epw_url":"https://energyplus-weather.s3.amazonaws.com/north_and_central_america_wmo_region_4/CAN/NS/CAN_NS_Sydney.717070_CWEC/CAN_NS_Sydney.717070_CWEC.epw","lon":-60.05,"lat":46.17},{"title":"CAN_NS_Truro.713980_CWEC","epw_url":"https://energyplus-weather.s3.amazonaws.com/north_and_central_america_wmo_region_4/CAN/NS/CAN_NS_Truro.713980_CWEC/CAN_NS_Truro.713980_CWEC.epw","lon":-63.27,"lat":45.37},{"title":"CAN_NT_Inuvik.719570_CWEC","epw_url":"https://energyplus-weather.s3.amazonaws.com/north_and_central_america_wmo_region_4/CAN/NT/CAN_NT_Inuvik.719570_CWEC/CAN_NT_Inuvik.719570_CWEC.epw","lon":-133.48,"lat":68.3},{"title":"CAN_NT_Yellowknife.719360_CWEC","epw_url":"https://energyplus-weather.s3.amazonaws.com/north_and_central_america_wmo_region_4/CAN/NT/CAN_NT_Yellowknife.719360_CWEC/CAN_NT_Yellowknife.719360_CWEC.epw","lon":-114.45,"lat":62.47},{"title":"CAN_NU_Resolute.719240_CWEC","epw_url":"https://energyplus-weather.s3.amazonaws.com/north_and_central_america_wmo_region_4/CAN/NU/CAN_NU_Resolute.719240_CWEC/CAN_NU_Resolute.719240_CWEC.epw","lon":-94.98,"lat":74.72},{"title":"CAN_ON_Kingston.716200_CWEC","epw_url":"https://energyplus-weather.s3.amazonaws.com/north_and_central_america_wmo_region_4/CAN/ON/CAN_ON_Kingston.716200_CWEC/CAN_ON_Kingston.716200_CWEC.epw","lon":-76.6,"lat":44.22},{"title":"CAN_ON_London.716230_CWEC","epw_url":"https://energyplus-weather.s3.amazonaws.com/north_and_central_america_wmo_region_4/CAN/ON/CAN_ON_London.716230_CWEC/CAN_ON_London.716230_CWEC.epw","lon":-81.15,"lat":43.03},{"title":"CAN_ON_Mount.Forest.716310_CWEC","epw_url":"https://energyplus-weather.s3.amazonaws.com/north_and_central_america_wmo_region_4/CAN/ON/CAN_ON_Mount.Forest.716310_CWEC/CAN_ON_Mount.Forest.716310_CWEC.epw","lon":-80.75,"lat":43.98},{"title":"CAN_ON_Muskoka.716300_CWEC","epw_url":"https://energyplus-weather.s3.amazonaws.com/north_and_central_america_wmo_region_4/CAN/ON/CAN_ON_Muskoka.716300_CWEC/CAN_ON_Muskoka.716300_CWEC.epw","lon":-79.3,"lat":44.97},{"title":"CAN_ON_North.Bay.717310_CWEC","epw_url":"https://energyplus-weather.s3.amazonaws.com/north_and_central_america_wmo_region_4/CAN/ON/CAN_ON_North.Bay.717310_CWEC/CAN_ON_North.Bay.717310_CWEC.epw","lon":-79.43,"lat":46.35},{"title":"CAN_ON_Ottawa.716280_CWEC","epw_url":"https://energyplus-weather.s3.amazonaws.com/north_and_central_america_wmo_region_4/CAN/ON/CAN_ON_Ottawa.716280_CWEC/CAN_ON_Ottawa.716280_CWEC.epw","lon":-75.67,"lat":45.32},{"title":"CAN_ON_Sault.Ste.Marie.712600_CWEC","epw_url":"https://energyplus-weather.s3.amazonaws.com/north_and_central_america_wmo_region_4/CAN/ON/CAN_ON_Sault.Ste.Marie.712600_CWEC/CAN_ON_Sault.Ste.Marie.712600_CWEC.epw","lon":-84.52,"lat":46.48},{"title":"CAN_ON_Simcoe.715270_CWEC","epw_url":"https://energyplus-weather.s3.amazonaws.com/north_and_central_america_wmo_region_4/CAN/ON/CAN_ON_Simcoe.715270_CWEC/CAN_ON_Simcoe.715270_CWEC.epw","lon":-80.27,"lat":42.85},{"title":"CAN_ON_Thunder.Bay.717490_CWEC","epw_url":"https://energyplus-weather.s3.amazonaws.com/north_and_central_america_wmo_region_4/CAN/ON/CAN_ON_Thunder.Bay.717490_CWEC/CAN_ON_Thunder.Bay.717490_CWEC.epw","lon":-89.32,"lat":48.37},{"title":"CAN_ON_Timmins.717390_CWEC","epw_url":"https://energyplus-weather.s3.amazonaws.com/north_and_central_america_wmo_region_4/CAN/ON/CAN_ON_Timmins.717390_CWEC/CAN_ON_Timmins.717390_CWEC.epw","lon":-81.37,"lat":48.57},{"title":"CAN_ON_Toronto.716240_CWEC","epw_url":"https://energyplus-weather.s3.amazonaws.com/north_and_central_america_wmo_region_4/CAN/ON/CAN_ON_Toronto.716240_CWEC/CAN_ON_Toronto.716240_CWEC.epw","lon":-79.63,"lat":43.67},{"title":"CAN_ON_Trenton.716210_CWEC","epw_url":"https://energyplus-weather.s3.amazonaws.com/north_and_central_america_wmo_region_4/CAN/ON/CAN_ON_Trenton.716210_CWEC/CAN_ON_Trenton.716210_CWEC.epw","lon":-77.53,"lat":44.12},{"title":"CAN_ON_Windsor.715380_CWEC","epw_url":"https://energyplus-weather.s3.amazonaws.com/north_and_central_america_wmo_region_4/CAN/ON/CAN_ON_Windsor.715380_CWEC/CAN_ON_Windsor.715380_CWEC.epw","lon":-82.97,"lat":42.27},{"title":"CAN_PE_Charlottetown.717060_CWEC","epw_url":"https://energyplus-weather.s3.amazonaws.com/north_and_central_america_wmo_region_4/CAN/PE/CAN_PE_Charlottetown.717060_CWEC/CAN_PE_Charlottetown.717060_CWEC.epw","lon":-63.13,"lat":46.28},{"title":"CAN_PQ_Bagotville.717270_CWEC","epw_url":"https://energyplus-weather.s3.amazonaws.com/north_and_central_america_wmo_region_4/CAN/PQ/CAN_PQ_Bagotville.717270_CWEC/CAN_PQ_Bagotville.717270_CWEC.epw","lon":-71,"lat":48.33},{"title":"CAN_PQ_Baie.Comeau.711870_CWEC","epw_url":"https://energyplus-weather.s3.amazonaws.com/north_and_central_america_wmo_region_4/CAN/PQ/CAN_PQ_Baie.Comeau.711870_CWEC/CAN_PQ_Baie.Comeau.711870_CWEC.epw","lon":-68.2,"lat":49.13},{"title":"CAN_PQ_Grindstone.Island_CWEC","epw_url":"https://energyplus-weather.s3.amazonaws.com/north_and_central_america_wmo_region_4/CAN/PQ/CAN_PQ_Grindstone.Island_CWEC/CAN_PQ_Grindstone.Island_CWEC.epw","lon":-61.87,"lat":47.38},{"title":"CAN_PQ_Kuujjuarapik.719050_CWEC","epw_url":"https://energyplus-weather.s3.amazonaws.com/north_and_central_america_wmo_region_4/CAN/PQ/CAN_PQ_Kuujjuarapik.719050_CWEC/CAN_PQ_Kuujjuarapik.719050_CWEC.epw","lon":-77.77,"lat":55.28},{"title":"CAN_PQ_Kuujuaq.719060_CWEC","epw_url":"https://energyplus-weather.s3.amazonaws.com/north_and_central_america_wmo_region_4/CAN/PQ/CAN_PQ_Kuujuaq.719060_CWEC/CAN_PQ_Kuujuaq.719060_CWEC.epw","lon":-68.42,"lat":58.1},{"title":"CAN_PQ_La.Grande.Riviere.718270_CWEC","epw_url":"https://energyplus-weather.s3.amazonaws.com/north_and_central_america_wmo_region_4/CAN/PQ/CAN_PQ_La.Grande.Riviere.718270_CWEC/CAN_PQ_La.Grande.Riviere.718270_CWEC.epw","lon":-77.7,"lat":53.63},{"title":"CAN_PQ_Lake.Eon.714210_CWEC","epw_url":"https://energyplus-weather.s3.amazonaws.com/north_and_central_america_wmo_region_4/CAN/PQ/CAN_PQ_Lake.Eon.714210_CWEC/CAN_PQ_Lake.Eon.714210_CWEC.epw","lon":-63.28,"lat":51.87},{"title":"CAN_PQ_Mont.Joli.717180_CWEC","epw_url":"https://energyplus-weather.s3.amazonaws.com/north_and_central_america_wmo_region_4/CAN/PQ/CAN_PQ_Mont.Joli.717180_CWEC/CAN_PQ_Mont.Joli.717180_CWEC.epw","lon":-68.22,"lat":48.6},{"title":"CAN_PQ_Montreal.Intl.AP.716270_CWEC","epw_url":"https://energyplus-weather.s3.amazonaws.com/north_and_central_america_wmo_region_4/CAN/PQ/CAN_PQ_Montreal.Intl.AP.716270_CWEC/CAN_PQ_Montreal.Intl.AP.716270_CWEC.epw","lon":-73.75,"lat":45.47},{"title":"CAN_PQ_Montreal.Jean.Brebeuf.716278_CWEC","epw_url":"https://energyplus-weather.s3.amazonaws.com/north_and_central_america_wmo_region_4/CAN/PQ/CAN_PQ_Montreal.Jean.Brebeuf.716278_CWEC/CAN_PQ_Montreal.Jean.Brebeuf.716278_CWEC.epw","lon":-73.62,"lat":45.5},{"title":"CAN_PQ_Montreal.Mirabel.716278_CWEC","epw_url":"https://energyplus-weather.s3.amazonaws.com/north_and_central_america_wmo_region_4/CAN/PQ/CAN_PQ_Montreal.Mirabel.716278_CWEC/CAN_PQ_Montreal.Mirabel.716278_CWEC.epw","lon":-74.03,"lat":45.68},{"title":"CAN_PQ_Nitchequon.CAN270_CWEC","epw_url":"https://energyplus-weather.s3.amazonaws.com/north_and_central_america_wmo_region_4/CAN/PQ/CAN_PQ_Nitchequon.CAN270_CWEC/CAN_PQ_Nitchequon.CAN270_CWEC.epw","lon":-70.9,"lat":53.2},{"title":"CAN_PQ_Quebec.717140_CWEC","epw_url":"https://energyplus-weather.s3.amazonaws.com/north_and_central_america_wmo_region_4/CAN/PQ/CAN_PQ_Quebec.717140_CWEC/CAN_PQ_Quebec.717140_CWEC.epw","lon":-71.38,"lat":46.8},{"title":"CAN_PQ_Riviere.du.Loup.717150_CWEC","epw_url":"https://energyplus-weather.s3.amazonaws.com/north_and_central_america_wmo_region_4/CAN/PQ/CAN_PQ_Riviere.du.Loup.717150_CWEC/CAN_PQ_Riviere.du.Loup.717150_CWEC.epw","lon":-69.55,"lat":47.8},{"title":"CAN_PQ_Roberval.717280_CWEC","epw_url":"https://energyplus-weather.s3.amazonaws.com/north_and_central_america_wmo_region_4/CAN/PQ/CAN_PQ_Roberval.717280_CWEC/CAN_PQ_Roberval.717280_CWEC.epw","lon":-72.27,"lat":48.52},{"title":"CAN_PQ_Schefferville.718280_CWEC","epw_url":"https://energyplus-weather.s3.amazonaws.com/north_and_central_america_wmo_region_4/CAN/PQ/CAN_PQ_Schefferville.718280_CWEC/CAN_PQ_Schefferville.718280_CWEC.epw","lon":-66.82,"lat":54.8},{"title":"CAN_PQ_Sept-Iles.718110_CWEC","epw_url":"https://energyplus-weather.s3.amazonaws.com/north_and_central_america_wmo_region_4/CAN/PQ/CAN_PQ_Sept-Iles.718110_CWEC/CAN_PQ_Sept-Iles.718110_CWEC.epw","lon":-66.27,"lat":50.22},{"title":"CAN_PQ_Sherbrooke.716100_CWEC","epw_url":"https://energyplus-weather.s3.amazonaws.com/north_and_central_america_wmo_region_4/CAN/PQ/CAN_PQ_Sherbrooke.716100_CWEC/CAN_PQ_Sherbrooke.716100_CWEC.epw","lon":-71.68,"lat":45.43},{"title":"CAN_PQ_St.Hubert.713710_CWEC","epw_url":"https://energyplus-weather.s3.amazonaws.com/north_and_central_america_wmo_region_4/CAN/PQ/CAN_PQ_St.Hubert.713710_CWEC/CAN_PQ_St.Hubert.713710_CWEC.epw","lon":-73.42,"lat":45.52},{"title":"CAN_PQ_Ste.Agathe.des.Monts.717200_CWEC","epw_url":"https://energyplus-weather.s3.amazonaws.com/north_and_central_america_wmo_region_4/CAN/PQ/CAN_PQ_Ste.Agathe.des.Monts.717200_CWEC/CAN_PQ_Ste.Agathe.des.Monts.717200_CWEC.epw","lon":-74.28,"lat":46.05},{"title":"CAN_PQ_Val.d.Or.717250_CWEC","epw_url":"https://energyplus-weather.s3.amazonaws.com/north_and_central_america_wmo_region_4/CAN/PQ/CAN_PQ_Val.d.Or.717250_CWEC/CAN_PQ_Val.d.Or.717250_CWEC.epw","lon":-77.78,"lat":48.07},{"title":"CAN_SK_Estevan.718620_CWEC","epw_url":"https://energyplus-weather.s3.amazonaws.com/north_and_central_america_wmo_region_4/CAN/SK/CAN_SK_Estevan.718620_CWEC/CAN_SK_Estevan.718620_CWEC.epw","lon":-102.97,"lat":49.22},{"title":"CAN_SK_North.Battleford.718760_CWEC","epw_url":"https://energyplus-weather.s3.amazonaws.com/north_and_central_america_wmo_region_4/CAN/SK/CAN_SK_North.Battleford.718760_CWEC/CAN_SK_North.Battleford.718760_CWEC.epw","lon":-108.25,"lat":52.77},{"title":"CAN_SK_Regina.718630_CWEC","epw_url":"https://energyplus-weather.s3.amazonaws.com/north_and_central_america_wmo_region_4/CAN/SK/CAN_SK_Regina.718630_CWEC/CAN_SK_Regina.718630_CWEC.epw","lon":-104.67,"lat":50.43},{"title":"CAN_SK_Saskatoon.718660_CWEC","epw_url":"https://energyplus-weather.s3.amazonaws.com/north_and_central_america_wmo_region_4/CAN/SK/CAN_SK_Saskatoon.718660_CWEC/CAN_SK_Saskatoon.718660_CWEC.epw","lon":-106.68,"lat":52.17},{"title":"CAN_SK_Swift.Current.718700_CWEC","epw_url":"https://energyplus-weather.s3.amazonaws.com/north_and_central_america_wmo_region_4/CAN/SK/CAN_SK_Swift.Current.718700_CWEC/CAN_SK_Swift.Current.718700_CWEC.epw","lon":-107.68,"lat":50.28},{"title":"CAN_YT_Whitehorse.719640_CWEC","epw_url":"https://energyplus-weather.s3.amazonaws.com/north_and_central_america_wmo_region_4/CAN/YT/CAN_YT_Whitehorse.719640_CWEC/CAN_YT_Whitehorse.719640_CWEC.epw","lon":-135.07,"lat":60.72},{"title":"Canela AP_RS_BRA","epw_url":"https://energyplus-weather.s3.amazonaws.com/south_america_wmo_region_3/BRA/BRA_RS_Canela.AP.869800_INMET/BRA_RS_Canela.AP.869800_INMET.epw","lon":-50.83,"lat":-29.37},{"title":"Cangu\u00e7u_RS_BRA","epw_url":"https://energyplus-weather.s3.amazonaws.com/south_america_wmo_region_3/BRA/BRA_RS_Cangucu.869930_INMET/BRA_RS_Cangucu.869930_INMET.epw","lon":-52.7,"lat":-31.41},{"title":"Capelinha_MG_BRA","epw_url":"https://energyplus-weather.s3.amazonaws.com/south_america_wmo_region_3/BRA/BRA_MG_Capelinha.867610_INMET/BRA_MG_Capelinha.867610_INMET.epw","lon":-42.52,"lat":-17.69},{"title":"Caracol_PI_BRA","epw_url":"https://energyplus-weather.s3.amazonaws.com/south_america_wmo_region_3/BRA/BRA_PI_Caracol.819880_INMET/BRA_PI_Caracol.819880_INMET.epw","lon":-43.32,"lat":-9.29},{"title":"Carangola_MG_BRA","epw_url":"https://energyplus-weather.s3.amazonaws.com/south_america_wmo_region_3/BRA/BRA_MG_Carangola.868230_INMET/BRA_MG_Carangola.868230_INMET.epw","lon":-42.02,"lat":-20.73},{"title":"Caratinga_MG_BRA","epw_url":"https://energyplus-weather.s3.amazonaws.com/south_america_wmo_region_3/BRA/BRA_MG_Caratinga.835920_INMET/BRA_MG_Caratinga.835920_INMET.epw","lon":-42.14,"lat":-19.79},{"title":"Caravelas_BA_BRA","epw_url":"https://energyplus-weather.s3.amazonaws.com/south_america_wmo_region_3/BRA/BRA_BA_Caravelas.834970_INMET/BRA_BA_Caravelas.834970_INMET.epw","lon":-39.2,"lat":-17.73},{"title":"Carira_SE_BRA","epw_url":"https://energyplus-weather.s3.amazonaws.com/south_america_wmo_region_3/BRA/BRA_SE_Carira.866150_INMET/BRA_SE_Carira.866150_INMET.epw","lon":-37.75,"lat":-10.4},{"title":"Carlinda_MT_BRA","epw_url":"https://energyplus-weather.s3.amazonaws.com/south_america_wmo_region_3/BRA/BRA_MT_Carlinda.819780_INMET/BRA_MT_Carlinda.819780_INMET.epw","lon":-55.83,"lat":-9.97},{"title":"Carolina_MA_BRA","epw_url":"https://energyplus-weather.s3.amazonaws.com/south_america_wmo_region_3/BRA/BRA_MA_Carolina.819010_INMET/BRA_MA_Carolina.819010_INMET.epw","lon":-47.46,"lat":-7.34},{"title":"Caruaru_PE_BRA","epw_url":"https://energyplus-weather.s3.amazonaws.com/south_america_wmo_region_3/BRA/BRA_PE_Caruaru.828950_INMET/BRA_PE_Caruaru.828950_INMET.epw","lon":-35.99,"lat":-8.24},{"title":"Casa Branca_SP_BRA","epw_url":"https://energyplus-weather.s3.amazonaws.com/south_america_wmo_region_3/BRA/BRA_SP_Casa.Branca.868440_INMET/BRA_SP_Casa.Branca.868440_INMET.epw","lon":-47.09,"lat":-21.77},{"title":"Castanhal_PA_BRA","epw_url":"https://energyplus-weather.s3.amazonaws.com/south_america_wmo_region_3/BRA/BRA_PA_Castanhal.816820_INMET/BRA_PA_Castanhal.816820_INMET.epw","lon":-47.92,"lat":-1.3},{"title":"Castelo do Piaui_PI_BRA","epw_url":"https://energyplus-weather.s3.amazonaws.com/south_america_wmo_region_3/BRA/BRA_PI_Castelo.do.Piaui.818290_INMET/BRA_PI_Castelo.do.Piaui.818290_INMET.epw","lon":-41.51,"lat":-5.35},{"title":"Castro_PR_BRA","epw_url":"https://energyplus-weather.s3.amazonaws.com/south_america_wmo_region_3/BRA/BRA_PR_Castro.869210_INMET/BRA_PR_Castro.869210_INMET.epw","lon":-50.01,"lat":-24.79},{"title":"Catal\u00e3o_GO_BRA","epw_url":"https://energyplus-weather.s3.amazonaws.com/south_america_wmo_region_3/BRA/BRA_GO_Catalao.867770_INMET/BRA_GO_Catalao.867770_INMET.epw","lon":-47.93,"lat":-18.16},{"title":"Caxias_MA_BRA","epw_url":"https://energyplus-weather.s3.amazonaws.com/south_america_wmo_region_3/BRA/BRA_MA_Caxias.817920_INMET/BRA_MA_Caxias.817920_INMET.epw","lon":-43.34,"lat":-4.82},{"title":"Ca\u00e7ador_SC_BRA","epw_url":"https://energyplus-weather.s3.amazonaws.com/south_america_wmo_region_3/BRA/BRA_SC_Cacador.869430_INMET/BRA_SC_Cacador.869430_INMET.epw","lon":-50.84,"lat":-26.82},{"title":"Ca\u00e7apava do Sul_RS_BRA","epw_url":"https://energyplus-weather.s3.amazonaws.com/south_america_wmo_region_3/BRA/BRA_RS_Cacapava.do.Sul.869860_INMET/BRA_RS_Cacapava.do.Sul.869860_INMET.epw","lon":-53.49,"lat":-30.51},{"title":"Ceres_Santa Fe_ARG","epw_url":"https://energyplus-weather.s3.amazonaws.com/south_america_wmo_region_3/ARG/ARG_Santa.Fe_Ceres_872570_ArgTMY/ARG_Santa.Fe_Ceres_872570_ArgTMY.epw","lon":-61.95,"lat":-29.88},{"title":"Chapada Ga\u00facha_MG_BRA","epw_url":"https://energyplus-weather.s3.amazonaws.com/south_america_wmo_region_3/BRA/BRA_MG_Chapada.Gaucha.867190_INMET/BRA_MG_Chapada.Gaucha.867190_INMET.epw","lon":-45.62,"lat":-15.31},{"title":"Chapadinha_MA_BRA","epw_url":"https://energyplus-weather.s3.amazonaws.com/south_america_wmo_region_3/BRA/BRA_MA_Chapadinha.817490_INMET/BRA_MA_Chapadinha.817490_INMET.epw","lon":-43.35,"lat":-3.74},{"title":"Chapad\u00e3o do Sul_MS_BRA","epw_url":"https://energyplus-weather.s3.amazonaws.com/south_america_wmo_region_3/BRA/BRA_MS_Chapadao.do.Sul.867720_INMET/BRA_MS_Chapadao.do.Sul.867720_INMET.epw","lon":-52.62,"lat":-18.79},{"title":"CHE_Geneva.067000_IWEC","epw_url":"https://energyplus-weather.s3.amazonaws.com/europe_wmo_region_6/CHE/CHE_Geneva.067000_IWEC/CHE_Geneva.067000_IWEC.epw","lon":6.13,"lat":46.25},{"title":"CHL_Antofagasta.854420_IWEC","epw_url":"https://energyplus-weather.s3.amazonaws.com/south_america_wmo_region_3/CHL/CHL_Antofagasta.854420_IWEC/CHL_Antofagasta.854420_IWEC.epw","lon":-70.43,"lat":-23.43},{"title":"CHL_Concepcion.856820_IWEC","epw_url":"https://energyplus-weather.s3.amazonaws.com/south_america_wmo_region_3/CHL/CHL_Concepcion.856820_IWEC/CHL_Concepcion.856820_IWEC.epw","lon":-73.05,"lat":-36.77},{"title":"CHL_Easter.Island.854690_IWEC","epw_url":"https://energyplus-weather.s3.amazonaws.com/south_america_wmo_region_3/CHL/CHL_Easter.Island.854690_IWEC/CHL_Easter.Island.854690_IWEC.epw","lon":-109.42,"lat":-27.15},{"title":"CHL_Punta.Arenas.859340_IWEC","epw_url":"https://energyplus-weather.s3.amazonaws.com/south_america_wmo_region_3/CHL/CHL_Punta.Arenas.859340_IWEC/CHL_Punta.Arenas.859340_IWEC.epw","lon":-70.85,"lat":-53},{"title":"CHL_Santiago.855740_IWEC","epw_url":"https://energyplus-weather.s3.amazonaws.com/south_america_wmo_region_3/CHL/CHL_Santiago.855740_IWEC/CHL_Santiago.855740_IWEC.epw","lon":-70.78,"lat":-33.38},{"title":"CHN_Anhui.Anqing.584240_CSWD","epw_url":"https://energyplus-weather.s3.amazonaws.com/asia_wmo_region_2/CHN/CHN_Anhui.Anqing.584240_CSWD/CHN_Anhui.Anqing.584240_CSWD.epw","lon":117.05,"lat":30.53},{"title":"CHN_Anhui.Bengbu.582210_CSWD","epw_url":"https://energyplus-weather.s3.amazonaws.com/asia_wmo_region_2/CHN/CHN_Anhui.Bengbu.582210_CSWD/CHN_Anhui.Bengbu.582210_CSWD.epw","lon":117.38,"lat":32.95},{"title":"CHN_Anhui.Boxian.581020_CSWD","epw_url":"https://energyplus-weather.s3.amazonaws.com/asia_wmo_region_2/CHN/CHN_Anhui.Boxian.581020_CSWD/CHN_Anhui.Boxian.581020_CSWD.epw","lon":115.77,"lat":33.87},{"title":"CHN_Anhui.Dongcheng.583190_CSWD","epw_url":"https://energyplus-weather.s3.amazonaws.com/asia_wmo_region_2/CHN/CHN_Anhui.Dongcheng.583190_CSWD/CHN_Anhui.Dongcheng.583190_CSWD.epw","lon":116.95,"lat":31.07},{"title":"CHN_Anhui.Hefei.583210_CSWD","epw_url":"https://energyplus-weather.s3.amazonaws.com/asia_wmo_region_2/CHN/CHN_Anhui.Hefei.583210_CSWD/CHN_Anhui.Hefei.583210_CSWD.epw","lon":117.23,"lat":31.87},{"title":"CHN_Anhui.Hefei.583210_SWERA","epw_url":"https://energyplus-weather.s3.amazonaws.com/asia_wmo_region_2/CHN/CHN_Anhui.Hefei.583210_SWERA/CHN_Anhui.Hefei.583210_SWERA.epw","lon":117.23,"lat":31.87},{"title":"CHN_Anhui.Huoshan.583140_CSWD","epw_url":"https://energyplus-weather.s3.amazonaws.com/asia_wmo_region_2/CHN/CHN_Anhui.Huoshan.583140_CSWD/CHN_Anhui.Huoshan.583140_CSWD.epw","lon":116.32,"lat":31.4},{"title":"CHN_Anhui.Shouxian.582150_CSWD","epw_url":"https://energyplus-weather.s3.amazonaws.com/asia_wmo_region_2/CHN/CHN_Anhui.Shouxian.582150_CSWD/CHN_Anhui.Shouxian.582150_CSWD.epw","lon":116.78,"lat":32.55},{"title":"CHN_Anhui.Tunxi.585310_CSWD","epw_url":"https://energyplus-weather.s3.amazonaws.com/asia_wmo_region_2/CHN/CHN_Anhui.Tunxi.585310_CSWD/CHN_Anhui.Tunxi.585310_CSWD.epw","lon":118.28,"lat":29.72},{"title":"CHN_Beijing.Beijing.545110_CSWD","epw_url":"https://energyplus-weather.s3.amazonaws.com/asia_wmo_region_2/CHN/CHN_Beijing.Beijing.545110_CSWD/CHN_Beijing.Beijing.545110_CSWD.epw","lon":116.47,"lat":39.8},{"title":"CHN_Beijing.Beijing.545110_IWEC","epw_url":"https://energyplus-weather.s3.amazonaws.com/asia_wmo_region_2/CHN/CHN_Beijing.Beijing.545110_IWEC/CHN_Beijing.Beijing.545110_IWEC.epw","lon":116.47,"lat":39.8},{"title":"CHN_Beijing.Beijing.545110_SWERA","epw_url":"https://energyplus-weather.s3.amazonaws.com/asia_wmo_region_2/CHN/CHN_Beijing.Beijing.545110_SWERA/CHN_Beijing.Beijing.545110_SWERA.epw","lon":116.28,"lat":39.93},{"title":"CHN_Beijing.Miyun.544160_CSWD","epw_url":"https://energyplus-weather.s3.amazonaws.com/asia_wmo_region_2/CHN/CHN_Beijing.Miyun.544160_CSWD/CHN_Beijing.Miyun.544160_CSWD.epw","lon":116.87,"lat":40.38},{"title":"CHN_Chongqing.Chongqing.Shapingba.575160_CSWD","epw_url":"https://energyplus-weather.s3.amazonaws.com/asia_wmo_region_2/CHN/CHN_Chongqing.Chongqing.Shapingba.575160_CSWD/CHN_Chongqing.Chongqing.Shapingba.575160_CSWD.epw","lon":106.47,"lat":29.58},{"title":"CHN_Chongqing.Chongqing.Shapingba.575160_SWERA","epw_url":"https://energyplus-weather.s3.amazonaws.com/asia_wmo_region_2/CHN/CHN_Chongqing.Chongqing.Shapingba.575160_SWERA/CHN_Chongqing.Chongqing.Shapingba.575160_SWERA.epw","lon":106.48,"lat":29.52},{"title":"CHN_Chongqing.Youyang.576330_CSWD","epw_url":"https://energyplus-weather.s3.amazonaws.com/asia_wmo_region_2/CHN/CHN_Chongqing.Youyang.576330_CSWD/CHN_Chongqing.Youyang.576330_CSWD.epw","lon":108.77,"lat":28.83},{"title":"CHN_Fujian.Congwu.591330_CSWD","epw_url":"https://energyplus-weather.s3.amazonaws.com/asia_wmo_region_2/CHN/CHN_Fujian.Congwu.591330_CSWD/CHN_Fujian.Congwu.591330_CSWD.epw","lon":118.92,"lat":24.9},{"title":"CHN_Fujian.Fuzhou.588470_CSWD","epw_url":"https://energyplus-weather.s3.amazonaws.com/asia_wmo_region_2/CHN/CHN_Fujian.Fuzhou.588470_CSWD/CHN_Fujian.Fuzhou.588470_CSWD.epw","lon":119.28,"lat":26.08},{"title":"CHN_Fujian.Jianou.587370_CSWD","epw_url":"https://energyplus-weather.s3.amazonaws.com/asia_wmo_region_2/CHN/CHN_Fujian.Jianou.587370_CSWD/CHN_Fujian.Jianou.587370_CSWD.epw","lon":118.32,"lat":27.05},{"title":"CHN_Fujian.Nanping.588340_CSWD","epw_url":"https://energyplus-weather.s3.amazonaws.com/asia_wmo_region_2/CHN/CHN_Fujian.Nanping.588340_CSWD/CHN_Fujian.Nanping.588340_CSWD.epw","lon":118.17,"lat":26.65},{"title":"CHN_Fujian.Shanghang.589180_CSWD","epw_url":"https://energyplus-weather.s3.amazonaws.com/asia_wmo_region_2/CHN/CHN_Fujian.Shanghang.589180_CSWD/CHN_Fujian.Shanghang.589180_CSWD.epw","lon":116.42,"lat":25.05},{"title":"CHN_Fujian.Xiamen.591340_CSWD","epw_url":"https://energyplus-weather.s3.amazonaws.com/asia_wmo_region_2/CHN/CHN_Fujian.Xiamen.591340_CSWD/CHN_Fujian.Xiamen.591340_CSWD.epw","lon":118.07,"lat":24.48},{"title":"CHN_Fujian.Yongan.589210_CSWD","epw_url":"https://energyplus-weather.s3.amazonaws.com/asia_wmo_region_2/CHN/CHN_Fujian.Yongan.589210_CSWD/CHN_Fujian.Yongan.589210_CSWD.epw","lon":117.35,"lat":25.97},{"title":"CHN_Gansu.Dunhuang.524180_CSWD","epw_url":"https://energyplus-weather.s3.amazonaws.com/asia_wmo_region_2/CHN/CHN_Gansu.Dunhuang.524180_CSWD/CHN_Gansu.Dunhuang.524180_CSWD.epw","lon":94.68,"lat":40.15},{"title":"CHN_Gansu.Hezuo.560800_CSWD","epw_url":"https://energyplus-weather.s3.amazonaws.com/asia_wmo_region_2/CHN/CHN_Gansu.Hezuo.560800_CSWD/CHN_Gansu.Hezuo.560800_CSWD.epw","lon":102.9,"lat":35},{"title":"CHN_Gansu.Jiuquan.525330_CSWD","epw_url":"https://energyplus-weather.s3.amazonaws.com/asia_wmo_region_2/CHN/CHN_Gansu.Jiuquan.525330_CSWD/CHN_Gansu.Jiuquan.525330_CSWD.epw","lon":98.48,"lat":39.77},{"title":"CHN_Gansu.Lanzhou.528890_CSWD","epw_url":"https://energyplus-weather.s3.amazonaws.com/asia_wmo_region_2/CHN/CHN_Gansu.Lanzhou.528890_CSWD/CHN_Gansu.Lanzhou.528890_CSWD.epw","lon":103.88,"lat":36.05},{"title":"CHN_Gansu.Lanzhou.528890_IWEC","epw_url":"https://energyplus-weather.s3.amazonaws.com/asia_wmo_region_2/CHN/CHN_Gansu.Lanzhou.528890_IWEC/CHN_Gansu.Lanzhou.528890_IWEC.epw","lon":103.88,"lat":36.05},{"title":"CHN_Gansu.Lanzhou.528890_SWERA","epw_url":"https://energyplus-weather.s3.amazonaws.com/asia_wmo_region_2/CHN/CHN_Gansu.Lanzhou.528890_SWERA/CHN_Gansu.Lanzhou.528890_SWERA.epw","lon":103.88,"lat":36.05},{"title":"CHN_Gansu.Minqin.526810_CSWD","epw_url":"https://energyplus-weather.s3.amazonaws.com/asia_wmo_region_2/CHN/CHN_Gansu.Minqin.526810_CSWD/CHN_Gansu.Minqin.526810_CSWD.epw","lon":103.08,"lat":38.63},{"title":"CHN_Gansu.Minqin.526810_SWERA","epw_url":"https://energyplus-weather.s3.amazonaws.com/asia_wmo_region_2/CHN/CHN_Gansu.Minqin.526810_SWERA/CHN_Gansu.Minqin.526810_SWERA.epw","lon":103.1,"lat":38.77},{"title":"CHN_Gansu.Minxian.560930_CSWD","epw_url":"https://energyplus-weather.s3.amazonaws.com/asia_wmo_region_2/CHN/CHN_Gansu.Minxian.560930_CSWD/CHN_Gansu.Minxian.560930_CSWD.epw","lon":104.02,"lat":34.43},{"title":"CHN_Gansu.Pingliang.539150_CSWD","epw_url":"https://energyplus-weather.s3.amazonaws.com/asia_wmo_region_2/CHN/CHN_Gansu.Pingliang.539150_CSWD/CHN_Gansu.Pingliang.539150_CSWD.epw","lon":106.67,"lat":35.55},{"title":"CHN_Gansu.Tianshui.570060_CSWD","epw_url":"https://energyplus-weather.s3.amazonaws.com/asia_wmo_region_2/CHN/CHN_Gansu.Tianshui.570060_CSWD/CHN_Gansu.Tianshui.570060_CSWD.epw","lon":105.75,"lat":34.58},{"title":"CHN_Gansu.Wudu.560960_CSWD","epw_url":"https://energyplus-weather.s3.amazonaws.com/asia_wmo_region_2/CHN/CHN_Gansu.Wudu.560960_CSWD/CHN_Gansu.Wudu.560960_CSWD.epw","lon":104.92,"lat":33.4},{"title":"CHN_Gansu.Wudu.560960_SWERA","epw_url":"https://energyplus-weather.s3.amazonaws.com/asia_wmo_region_2/CHN/CHN_Gansu.Wudu.560960_SWERA/CHN_Gansu.Wudu.560960_SWERA.epw","lon":104.92,"lat":33.4},{"title":"CHN_Gansu.Wushaoling.527870_CSWD","epw_url":"https://energyplus-weather.s3.amazonaws.com/asia_wmo_region_2/CHN/CHN_Gansu.Wushaoling.527870_CSWD/CHN_Gansu.Wushaoling.527870_CSWD.epw","lon":102.87,"lat":37.2},{"title":"CHN_Gansu.Xifengzhen.539230_CSWD","epw_url":"https://energyplus-weather.s3.amazonaws.com/asia_wmo_region_2/CHN/CHN_Gansu.Xifengzhen.539230_CSWD/CHN_Gansu.Xifengzhen.539230_CSWD.epw","lon":107.63,"lat":35.73},{"title":"CHN_Gansu.Yumenzhen.524360_CSWD","epw_url":"https://energyplus-weather.s3.amazonaws.com/asia_wmo_region_2/CHN/CHN_Gansu.Yumenzhen.524360_CSWD/CHN_Gansu.Yumenzhen.524360_CSWD.epw","lon":97.03,"lat":40.27},{"title":"CHN_Gansu.Yumenzhen.524360_SWERA","epw_url":"https://energyplus-weather.s3.amazonaws.com/asia_wmo_region_2/CHN/CHN_Gansu.Yumenzhen.524360_SWERA/CHN_Gansu.Yumenzhen.524360_SWERA.epw","lon":97.03,"lat":40.27},{"title":"CHN_Gansu.Yuzhong.529830_CSWD","epw_url":"https://energyplus-weather.s3.amazonaws.com/asia_wmo_region_2/CHN/CHN_Gansu.Yuzhong.529830_CSWD/CHN_Gansu.Yuzhong.529830_CSWD.epw","lon":104.15,"lat":35.87},{"title":"CHN_Guangdong.Dianbai.596640_CSWD","epw_url":"https://energyplus-weather.s3.amazonaws.com/asia_wmo_region_2/CHN/CHN_Guangdong.Dianbai.596640_CSWD/CHN_Guangdong.Dianbai.596640_CSWD.epw","lon":111,"lat":21.5},{"title":"CHN_Guangdong.Guangzhou.592870_CSWD","epw_url":"https://energyplus-weather.s3.amazonaws.com/asia_wmo_region_2/CHN/CHN_Guangdong.Guangzhou.592870_CSWD/CHN_Guangdong.Guangzhou.592870_CSWD.epw","lon":113.33,"lat":23.17},{"title":"CHN_Guangdong.Guangzhou.592870_IWEC","epw_url":"https://energyplus-weather.s3.amazonaws.com/asia_wmo_region_2/CHN/CHN_Guangdong.Guangzhou.592870_IWEC/CHN_Guangdong.Guangzhou.592870_IWEC.epw","lon":113.32,"lat":23.13},{"title":"CHN_Guangdong.Heyuan.592930_CSWD","epw_url":"https://energyplus-weather.s3.amazonaws.com/asia_wmo_region_2/CHN/CHN_Guangdong.Heyuan.592930_CSWD/CHN_Guangdong.Heyuan.592930_CSWD.epw","lon":114.68,"lat":23.73},{"title":"CHN_Guangdong.Nanxiong.579960_CSWD","epw_url":"https://energyplus-weather.s3.amazonaws.com/asia_wmo_region_2/CHN/CHN_Guangdong.Nanxiong.579960_CSWD/CHN_Guangdong.Nanxiong.579960_CSWD.epw","lon":114.32,"lat":25.13},{"title":"CHN_Guangdong.Shantou.593160_CSWD","epw_url":"https://energyplus-weather.s3.amazonaws.com/asia_wmo_region_2/CHN/CHN_Guangdong.Shantou.593160_CSWD/CHN_Guangdong.Shantou.593160_CSWD.epw","lon":116.68,"lat":23.4},{"title":"CHN_Guangdong.Shanwei.595010_CSWD","epw_url":"https://energyplus-weather.s3.amazonaws.com/asia_wmo_region_2/CHN/CHN_Guangdong.Shanwei.595010_CSWD/CHN_Guangdong.Shanwei.595010_CSWD.epw","lon":115.37,"lat":22.8},{"title":"CHN_Guangdong.Shaoguan.590820_CSWD","epw_url":"https://energyplus-weather.s3.amazonaws.com/asia_wmo_region_2/CHN/CHN_Guangdong.Shaoguan.590820_CSWD/CHN_Guangdong.Shaoguan.590820_CSWD.epw","lon":113.6,"lat":24.68},{"title":"CHN_Guangdong.Shenzhen.594930_SWERA","epw_url":"https://energyplus-weather.s3.amazonaws.com/asia_wmo_region_2/CHN/CHN_Guangdong.Shenzhen.594930_SWERA/CHN_Guangdong.Shenzhen.594930_SWERA.epw","lon":114.1,"lat":22.55},{"title":"CHN_Guangdong.Yangjiang.596630_CSWD","epw_url":"https://energyplus-weather.s3.amazonaws.com/asia_wmo_region_2/CHN/CHN_Guangdong.Yangjiang.596630_CSWD/CHN_Guangdong.Yangjiang.596630_CSWD.epw","lon":111.97,"lat":21.87},{"title":"CHN_Guangdong.Zhengcheng.592940_CSWD","epw_url":"https://energyplus-weather.s3.amazonaws.com/asia_wmo_region_2/CHN/CHN_Guangdong.Zhengcheng.592940_CSWD/CHN_Guangdong.Zhengcheng.592940_CSWD.epw","lon":113.83,"lat":23.33},{"title":"CHN_Guangxi.Zhuang.Baise.592110_CSWD","epw_url":"https://energyplus-weather.s3.amazonaws.com/asia_wmo_region_2/CHN/CHN_Guangxi.Zhuang.Baise.592110_CSWD/CHN_Guangxi.Zhuang.Baise.592110_CSWD.epw","lon":106.6,"lat":23.9},{"title":"CHN_Guangxi.Zhuang.Duan.590370_CSWD","epw_url":"https://energyplus-weather.s3.amazonaws.com/asia_wmo_region_2/CHN/CHN_Guangxi.Zhuang.Duan.590370_CSWD/CHN_Guangxi.Zhuang.Duan.590370_CSWD.epw","lon":108.1,"lat":23.93},{"title":"CHN_Guangxi.Zhuang.Guilin.579570_CSWD","epw_url":"https://energyplus-weather.s3.amazonaws.com/asia_wmo_region_2/CHN/CHN_Guangxi.Zhuang.Guilin.579570_CSWD/CHN_Guangxi.Zhuang.Guilin.579570_CSWD.epw","lon":110.3,"lat":25.32},{"title":"CHN_Guangxi.Zhuang.Guiping.592540_CSWD","epw_url":"https://energyplus-weather.s3.amazonaws.com/asia_wmo_region_2/CHN/CHN_Guangxi.Zhuang.Guiping.592540_CSWD/CHN_Guangxi.Zhuang.Guiping.592540_CSWD.epw","lon":110.08,"lat":23.4},{"title":"CHN_Guangxi.Zhuang.Hechi.590230_CSWD","epw_url":"https://energyplus-weather.s3.amazonaws.com/asia_wmo_region_2/CHN/CHN_Guangxi.Zhuang.Hechi.590230_CSWD/CHN_Guangxi.Zhuang.Hechi.590230_CSWD.epw","lon":108.05,"lat":24.7},{"title":"CHN_Guangxi.Zhuang.Lingshan.594460_CSWD","epw_url":"https://energyplus-weather.s3.amazonaws.com/asia_wmo_region_2/CHN/CHN_Guangxi.Zhuang.Lingshan.594460_CSWD/CHN_Guangxi.Zhuang.Lingshan.594460_CSWD.epw","lon":109.3,"lat":22.42},{"title":"CHN_Guangxi.Zhuang.Longzhou.594170_CSWD","epw_url":"https://energyplus-weather.s3.amazonaws.com/asia_wmo_region_2/CHN/CHN_Guangxi.Zhuang.Longzhou.594170_CSWD/CHN_Guangxi.Zhuang.Longzhou.594170_CSWD.epw","lon":106.85,"lat":22.33},{"title":"CHN_Guangxi.Zhuang.Nanning.594310_CSWD","epw_url":"https://energyplus-weather.s3.amazonaws.com/asia_wmo_region_2/CHN/CHN_Guangxi.Zhuang.Nanning.594310_CSWD/CHN_Guangxi.Zhuang.Nanning.594310_CSWD.epw","lon":108.22,"lat":22.63},{"title":"CHN_Guangxi.Zhuang.Qinzhou.596320_CSWD","epw_url":"https://energyplus-weather.s3.amazonaws.com/asia_wmo_region_2/CHN/CHN_Guangxi.Zhuang.Qinzhou.596320_CSWD/CHN_Guangxi.Zhuang.Qinzhou.596320_CSWD.epw","lon":108.62,"lat":21.95},{"title":"CHN_Guangxi.Zhuang.Wuzhou.592650_CSWD","epw_url":"https://energyplus-weather.s3.amazonaws.com/asia_wmo_region_2/CHN/CHN_Guangxi.Zhuang.Wuzhou.592650_CSWD/CHN_Guangxi.Zhuang.Wuzhou.592650_CSWD.epw","lon":111.3,"lat":23.48},{"title":"CHN_Guizhou.Bijie.577070_CSWD","epw_url":"https://energyplus-weather.s3.amazonaws.com/asia_wmo_region_2/CHN/CHN_Guizhou.Bijie.577070_CSWD/CHN_Guizhou.Bijie.577070_CSWD.epw","lon":105.28,"lat":27.3},{"title":"CHN_Guizhou.Guiyang.578160_CSWD","epw_url":"https://energyplus-weather.s3.amazonaws.com/asia_wmo_region_2/CHN/CHN_Guizhou.Guiyang.578160_CSWD/CHN_Guizhou.Guiyang.578160_CSWD.epw","lon":106.73,"lat":26.58},{"title":"CHN_Guizhou.Guiyang.578160_SWERA","epw_url":"https://energyplus-weather.s3.amazonaws.com/asia_wmo_region_2/CHN/CHN_Guizhou.Guiyang.578160_SWERA/CHN_Guizhou.Guiyang.578160_SWERA.epw","lon":106.72,"lat":26.58},{"title":"CHN_Guizhou.Sansui.578320_CSWD","epw_url":"https://energyplus-weather.s3.amazonaws.com/asia_wmo_region_2/CHN/CHN_Guizhou.Sansui.578320_CSWD/CHN_Guizhou.Sansui.578320_CSWD.epw","lon":108.67,"lat":26.97},{"title":"CHN_Guizhou.Tongzi.576060_CSWD","epw_url":"https://energyplus-weather.s3.amazonaws.com/asia_wmo_region_2/CHN/CHN_Guizhou.Tongzi.576060_CSWD/CHN_Guizhou.Tongzi.576060_CSWD.epw","lon":106.83,"lat":28.13},{"title":"CHN_Guizhou.Weining.566910_CSWD","epw_url":"https://energyplus-weather.s3.amazonaws.com/asia_wmo_region_2/CHN/CHN_Guizhou.Weining.566910_CSWD/CHN_Guizhou.Weining.566910_CSWD.epw","lon":104.28,"lat":26.87},{"title":"CHN_Guizhou.Xingyi.579020_CSWD","epw_url":"https://energyplus-weather.s3.amazonaws.com/asia_wmo_region_2/CHN/CHN_Guizhou.Xingyi.579020_CSWD/CHN_Guizhou.Xingyi.579020_CSWD.epw","lon":105.18,"lat":25.43},{"title":"CHN_Guizhou.Zunyi.577130_CSWD","epw_url":"https://energyplus-weather.s3.amazonaws.com/asia_wmo_region_2/CHN/CHN_Guizhou.Zunyi.577130_CSWD/CHN_Guizhou.Zunyi.577130_CSWD.epw","lon":106.88,"lat":27.7},{"title":"CHN_Hainan.Dongfang.598380_CSWD","epw_url":"https://energyplus-weather.s3.amazonaws.com/asia_wmo_region_2/CHN/CHN_Hainan.Dongfang.598380_CSWD/CHN_Hainan.Dongfang.598380_CSWD.epw","lon":108.62,"lat":19.1},{"title":"CHN_Hainan.Haikou.597580_CSWD","epw_url":"https://energyplus-weather.s3.amazonaws.com/asia_wmo_region_2/CHN/CHN_Hainan.Haikou.597580_CSWD/CHN_Hainan.Haikou.597580_CSWD.epw","lon":110.35,"lat":20.03},{"title":"CHN_Hainan.Qionghai.598550_CSWD","epw_url":"https://energyplus-weather.s3.amazonaws.com/asia_wmo_region_2/CHN/CHN_Hainan.Qionghai.598550_CSWD/CHN_Hainan.Qionghai.598550_CSWD.epw","lon":110.47,"lat":19.23},{"title":"CHN_Hebei.Chengde.544230_CSWD","epw_url":"https://energyplus-weather.s3.amazonaws.com/asia_wmo_region_2/CHN/CHN_Hebei.Chengde.544230_CSWD/CHN_Hebei.Chengde.544230_CSWD.epw","lon":117.95,"lat":40.98},{"title":"CHN_Hebei.Fengning.543080_CSWD","epw_url":"https://energyplus-weather.s3.amazonaws.com/asia_wmo_region_2/CHN/CHN_Hebei.Fengning.543080_CSWD/CHN_Hebei.Fengning.543080_CSWD.epw","lon":116.63,"lat":41.22},{"title":"CHN_Hebei.Huailai.544050_CSWD","epw_url":"https://energyplus-weather.s3.amazonaws.com/asia_wmo_region_2/CHN/CHN_Hebei.Huailai.544050_CSWD/CHN_Hebei.Huailai.544050_CSWD.epw","lon":115.5,"lat":40.4},{"title":"CHN_Hebei.Leting.545390_CSWD","epw_url":"https://energyplus-weather.s3.amazonaws.com/asia_wmo_region_2/CHN/CHN_Hebei.Leting.545390_CSWD/CHN_Hebei.Leting.545390_CSWD.epw","lon":118.88,"lat":39.43},{"title":"CHN_Hebei.Raoyang.546060_CSWD","epw_url":"https://energyplus-weather.s3.amazonaws.com/asia_wmo_region_2/CHN/CHN_Hebei.Raoyang.546060_CSWD/CHN_Hebei.Raoyang.546060_CSWD.epw","lon":115.73,"lat":38.23},{"title":"CHN_Hebei.Shijiazhuang.536980_CSWD","epw_url":"https://energyplus-weather.s3.amazonaws.com/asia_wmo_region_2/CHN/CHN_Hebei.Shijiazhuang.536980_CSWD/CHN_Hebei.Shijiazhuang.536980_CSWD.epw","lon":114.42,"lat":38.03},{"title":"CHN_Hebei.Xingtai.537980_CSWD","epw_url":"https://energyplus-weather.s3.amazonaws.com/asia_wmo_region_2/CHN/CHN_Hebei.Xingtai.537980_CSWD/CHN_Hebei.Xingtai.537980_CSWD.epw","lon":114.5,"lat":37.07},{"title":"CHN_Hebei.Zhangbei.533990_CSWD","epw_url":"https://energyplus-weather.s3.amazonaws.com/asia_wmo_region_2/CHN/CHN_Hebei.Zhangbei.533990_CSWD/CHN_Hebei.Zhangbei.533990_CSWD.epw","lon":114.7,"lat":41.15},{"title":"CHN_Heilongjiang.Anda.508540_CSWD","epw_url":"https://energyplus-weather.s3.amazonaws.com/asia_wmo_region_2/CHN/CHN_Heilongjiang.Anda.508540_CSWD/CHN_Heilongjiang.Anda.508540_CSWD.epw","lon":125.32,"lat":46.38},{"title":"CHN_Heilongjiang.Fujin.507880_CSWD","epw_url":"https://energyplus-weather.s3.amazonaws.com/asia_wmo_region_2/CHN/CHN_Heilongjiang.Fujin.507880_CSWD/CHN_Heilongjiang.Fujin.507880_CSWD.epw","lon":131.98,"lat":47.23},{"title":"CHN_Heilongjiang.Fuyu.507420_CSWD","epw_url":"https://energyplus-weather.s3.amazonaws.com/asia_wmo_region_2/CHN/CHN_Heilongjiang.Fuyu.507420_CSWD/CHN_Heilongjiang.Fuyu.507420_CSWD.epw","lon":124.48,"lat":47.78},{"title":"CHN_Heilongjiang.Hailun.507560_CSWD","epw_url":"https://energyplus-weather.s3.amazonaws.com/asia_wmo_region_2/CHN/CHN_Heilongjiang.Hailun.507560_CSWD/CHN_Heilongjiang.Hailun.507560_CSWD.epw","lon":126.97,"lat":47.43},{"title":"CHN_Heilongjiang.Harbin.509530_CSWD","epw_url":"https://energyplus-weather.s3.amazonaws.com/asia_wmo_region_2/CHN/CHN_Heilongjiang.Harbin.509530_CSWD/CHN_Heilongjiang.Harbin.509530_CSWD.epw","lon":126.77,"lat":45.75},{"title":"CHN_Heilongjiang.Harbin.509530_IWEC","epw_url":"https://energyplus-weather.s3.amazonaws.com/asia_wmo_region_2/CHN/CHN_Heilongjiang.Harbin.509530_IWEC/CHN_Heilongjiang.Harbin.509530_IWEC.epw","lon":126.68,"lat":45.72},{"title":"CHN_Heilongjiang.Harbin.509530_SWERA","epw_url":"https://energyplus-weather.s3.amazonaws.com/asia_wmo_region_2/CHN/CHN_Heilongjiang.Harbin.509530_SWERA/CHN_Heilongjiang.Harbin.509530_SWERA.epw","lon":126.77,"lat":45.75},{"title":"CHN_Heilongjiang.Huma.503530_CSWD","epw_url":"https://energyplus-weather.s3.amazonaws.com/asia_wmo_region_2/CHN/CHN_Heilongjiang.Huma.503530_CSWD/CHN_Heilongjiang.Huma.503530_CSWD.epw","lon":126.65,"lat":51.72},{"title":"CHN_Heilongjiang.Jiamusi.508730_CSWD","epw_url":"https://energyplus-weather.s3.amazonaws.com/asia_wmo_region_2/CHN/CHN_Heilongjiang.Jiamusi.508730_CSWD/CHN_Heilongjiang.Jiamusi.508730_CSWD.epw","lon":130.28,"lat":46.82},{"title":"CHN_Heilongjiang.Jixi.509780_CSWD","epw_url":"https://energyplus-weather.s3.amazonaws.com/asia_wmo_region_2/CHN/CHN_Heilongjiang.Jixi.509780_CSWD/CHN_Heilongjiang.Jixi.509780_CSWD.epw","lon":130.95,"lat":45.28},{"title":"CHN_Heilongjiang.Keshan.506580_CSWD","epw_url":"https://energyplus-weather.s3.amazonaws.com/asia_wmo_region_2/CHN/CHN_Heilongjiang.Keshan.506580_CSWD/CHN_Heilongjiang.Keshan.506580_CSWD.epw","lon":125.88,"lat":48.05},{"title":"CHN_Heilongjiang.Mohe.501360_CSWD","epw_url":"https://energyplus-weather.s3.amazonaws.com/asia_wmo_region_2/CHN/CHN_Heilongjiang.Mohe.501360_CSWD/CHN_Heilongjiang.Mohe.501360_CSWD.epw","lon":122.52,"lat":52.97},{"title":"CHN_Heilongjiang.Mudanjiang.540940_CSWD","epw_url":"https://energyplus-weather.s3.amazonaws.com/asia_wmo_region_2/CHN/CHN_Heilongjiang.Mudanjiang.540940_CSWD/CHN_Heilongjiang.Mudanjiang.540940_CSWD.epw","lon":129.6,"lat":44.57},{"title":"CHN_Heilongjiang.Nenjiang.505570_CSWD","epw_url":"https://energyplus-weather.s3.amazonaws.com/asia_wmo_region_2/CHN/CHN_Heilongjiang.Nenjiang.505570_CSWD/CHN_Heilongjiang.Nenjiang.505570_CSWD.epw","lon":125.23,"lat":49.17},{"title":"CHN_Heilongjiang.Qiqihar.507450_CSWD","epw_url":"https://energyplus-weather.s3.amazonaws.com/asia_wmo_region_2/CHN/CHN_Heilongjiang.Qiqihar.507450_CSWD/CHN_Heilongjiang.Qiqihar.507450_CSWD.epw","lon":123.92,"lat":47.38},{"title":"CHN_Heilongjiang.Shangzhi.509680_CSWD","epw_url":"https://energyplus-weather.s3.amazonaws.com/asia_wmo_region_2/CHN/CHN_Heilongjiang.Shangzhi.509680_CSWD/CHN_Heilongjiang.Shangzhi.509680_CSWD.epw","lon":127.97,"lat":45.22},{"title":"CHN_Heilongjiang.Suifenhe.540960_CSWD","epw_url":"https://energyplus-weather.s3.amazonaws.com/asia_wmo_region_2/CHN/CHN_Heilongjiang.Suifenhe.540960_CSWD/CHN_Heilongjiang.Suifenhe.540960_CSWD.epw","lon":131.17,"lat":44.38},{"title":"CHN_Heilongjiang.Sunwu.505640_CSWD","epw_url":"https://energyplus-weather.s3.amazonaws.com/asia_wmo_region_2/CHN/CHN_Heilongjiang.Sunwu.505640_CSWD/CHN_Heilongjiang.Sunwu.505640_CSWD.epw","lon":127.35,"lat":49.43},{"title":"CHN_Heilongjiang.Tonghe.509630_CSWD","epw_url":"https://energyplus-weather.s3.amazonaws.com/asia_wmo_region_2/CHN/CHN_Heilongjiang.Tonghe.509630_CSWD/CHN_Heilongjiang.Tonghe.509630_CSWD.epw","lon":128.73,"lat":45.97},{"title":"CHN_Heilongjiang.Zhaozhou.509500_CSWD","epw_url":"https://energyplus-weather.s3.amazonaws.com/asia_wmo_region_2/CHN/CHN_Heilongjiang.Zhaozhou.509500_CSWD/CHN_Heilongjiang.Zhaozhou.509500_CSWD.epw","lon":125.25,"lat":45.7},{"title":"CHN_Henan.Anyang.538980_CSWD","epw_url":"https://energyplus-weather.s3.amazonaws.com/asia_wmo_region_2/CHN/CHN_Henan.Anyang.538980_CSWD/CHN_Henan.Anyang.538980_CSWD.epw","lon":114.4,"lat":36.05},{"title":"CHN_Henan.Lushi.570670_CSWD","epw_url":"https://energyplus-weather.s3.amazonaws.com/asia_wmo_region_2/CHN/CHN_Henan.Lushi.570670_CSWD/CHN_Henan.Lushi.570670_CSWD.epw","lon":111.03,"lat":34.05},{"title":"CHN_Henan.Nanyang.571780_CSWD","epw_url":"https://energyplus-weather.s3.amazonaws.com/asia_wmo_region_2/CHN/CHN_Henan.Nanyang.571780_CSWD/CHN_Henan.Nanyang.571780_CSWD.epw","lon":112.58,"lat":33.03},{"title":"CHN_Henan.Shangqiu.580050_CSWD","epw_url":"https://energyplus-weather.s3.amazonaws.com/asia_wmo_region_2/CHN/CHN_Henan.Shangqiu.580050_CSWD/CHN_Henan.Shangqiu.580050_CSWD.epw","lon":115.67,"lat":34.45},{"title":"CHN_Henan.Xinyang.572970_CSWD","epw_url":"https://energyplus-weather.s3.amazonaws.com/asia_wmo_region_2/CHN/CHN_Henan.Xinyang.572970_CSWD/CHN_Henan.Xinyang.572970_CSWD.epw","lon":114.05,"lat":32.13},{"title":"CHN_Henan.Zhengzhou.570830_CSWD","epw_url":"https://energyplus-weather.s3.amazonaws.com/asia_wmo_region_2/CHN/CHN_Henan.Zhengzhou.570830_CSWD/CHN_Henan.Zhengzhou.570830_CSWD.epw","lon":113.65,"lat":34.72},{"title":"CHN_Henan.Zhumadian.572900_CSWD","epw_url":"https://energyplus-weather.s3.amazonaws.com/asia_wmo_region_2/CHN/CHN_Henan.Zhumadian.572900_CSWD/CHN_Henan.Zhumadian.572900_CSWD.epw","lon":114.02,"lat":33},{"title":"CHN_Hong.Kong.SAR.450070_CityUHK","epw_url":"https://energyplus-weather.s3.amazonaws.com/asia_wmo_region_2/CHN/CHN_Hong.Kong.SAR.450070_CityUHK/CHN_Hong.Kong.SAR.450070_CityUHK.epw","lon":114.17,"lat":22.32},{"title":"CHN_Hubei.Exi.574470_CSWD","epw_url":"https://energyplus-weather.s3.amazonaws.com/asia_wmo_region_2/CHN/CHN_Hubei.Exi.574470_CSWD/CHN_Hubei.Exi.574470_CSWD.epw","lon":109.47,"lat":30.28},{"title":"CHN_Hubei.Laohekou.572650_CSWD","epw_url":"https://energyplus-weather.s3.amazonaws.com/asia_wmo_region_2/CHN/CHN_Hubei.Laohekou.572650_CSWD/CHN_Hubei.Laohekou.572650_CSWD.epw","lon":111.67,"lat":32.38},{"title":"CHN_Hubei.Macheng.573990_CSWD","epw_url":"https://energyplus-weather.s3.amazonaws.com/asia_wmo_region_2/CHN/CHN_Hubei.Macheng.573990_CSWD/CHN_Hubei.Macheng.573990_CSWD.epw","lon":115.02,"lat":31.18},{"title":"CHN_Hubei.Wuhan.574940_CSWD","epw_url":"https://energyplus-weather.s3.amazonaws.com/asia_wmo_region_2/CHN/CHN_Hubei.Wuhan.574940_CSWD/CHN_Hubei.Wuhan.574940_CSWD.epw","lon":114.13,"lat":30.62},{"title":"CHN_Hubei.Wuhan.574940_SWERA","epw_url":"https://energyplus-weather.s3.amazonaws.com/asia_wmo_region_2/CHN/CHN_Hubei.Wuhan.574940_SWERA/CHN_Hubei.Wuhan.574940_SWERA.epw","lon":114.13,"lat":30.62},{"title":"CHN_Hubei.Yichang.574610_CSWD","epw_url":"https://energyplus-weather.s3.amazonaws.com/asia_wmo_region_2/CHN/CHN_Hubei.Yichang.574610_CSWD/CHN_Hubei.Yichang.574610_CSWD.epw","lon":111.3,"lat":30.7},{"title":"CHN_Hubei.Yunxi.572510_CSWD","epw_url":"https://energyplus-weather.s3.amazonaws.com/asia_wmo_region_2/CHN/CHN_Hubei.Yunxi.572510_CSWD/CHN_Hubei.Yunxi.572510_CSWD.epw","lon":110.42,"lat":33},{"title":"CHN_Hubei.Zhongxiang.573780_CSWD","epw_url":"https://energyplus-weather.s3.amazonaws.com/asia_wmo_region_2/CHN/CHN_Hubei.Zhongxiang.573780_CSWD/CHN_Hubei.Zhongxiang.573780_CSWD.epw","lon":112.57,"lat":31.17},{"title":"CHN_Hunan.Changde.576620_CSWD","epw_url":"https://energyplus-weather.s3.amazonaws.com/asia_wmo_region_2/CHN/CHN_Hunan.Changde.576620_CSWD/CHN_Hunan.Changde.576620_CSWD.epw","lon":111.68,"lat":29.05},{"title":"CHN_Hunan.Changning.578740_CSWD","epw_url":"https://energyplus-weather.s3.amazonaws.com/asia_wmo_region_2/CHN/CHN_Hunan.Changning.578740_CSWD/CHN_Hunan.Changning.578740_CSWD.epw","lon":112.4,"lat":26.42},{"title":"CHN_Hunan.Changsha.576870_CSWD","epw_url":"https://energyplus-weather.s3.amazonaws.com/asia_wmo_region_2/CHN/CHN_Hunan.Changsha.576870_CSWD/CHN_Hunan.Changsha.576870_CSWD.epw","lon":112.92,"lat":28.22},{"title":"CHN_Hunan.Changsha.576870_SWERA","epw_url":"https://energyplus-weather.s3.amazonaws.com/asia_wmo_region_2/CHN/CHN_Hunan.Changsha.576870_SWERA/CHN_Hunan.Changsha.576870_SWERA.epw","lon":112.87,"lat":28.23},{"title":"CHN_Hunan.Jishou.576490_CSWD","epw_url":"https://energyplus-weather.s3.amazonaws.com/asia_wmo_region_2/CHN/CHN_Hunan.Jishou.576490_CSWD/CHN_Hunan.Jishou.576490_CSWD.epw","lon":109.73,"lat":28.32},{"title":"CHN_Hunan.Lingling.578660_CSWD","epw_url":"https://energyplus-weather.s3.amazonaws.com/asia_wmo_region_2/CHN/CHN_Hunan.Lingling.578660_CSWD/CHN_Hunan.Lingling.578660_CSWD.epw","lon":111.62,"lat":26.23},{"title":"CHN_Hunan.Nanxian.575740_CSWD","epw_url":"https://energyplus-weather.s3.amazonaws.com/asia_wmo_region_2/CHN/CHN_Hunan.Nanxian.575740_CSWD/CHN_Hunan.Nanxian.575740_CSWD.epw","lon":112.4,"lat":29.37},{"title":"CHN_Hunan.Shimen.575620_CSWD","epw_url":"https://energyplus-weather.s3.amazonaws.com/asia_wmo_region_2/CHN/CHN_Hunan.Shimen.575620_CSWD/CHN_Hunan.Shimen.575620_CSWD.epw","lon":111.37,"lat":29.58},{"title":"CHN_Hunan.Wugang.578530_CSWD","epw_url":"https://energyplus-weather.s3.amazonaws.com/asia_wmo_region_2/CHN/CHN_Hunan.Wugang.578530_CSWD/CHN_Hunan.Wugang.578530_CSWD.epw","lon":110.63,"lat":26.73},{"title":"CHN_Hunan.Zhijiang.577450_CSWD","epw_url":"https://energyplus-weather.s3.amazonaws.com/asia_wmo_region_2/CHN/CHN_Hunan.Zhijiang.577450_CSWD/CHN_Hunan.Zhijiang.577450_CSWD.epw","lon":109.68,"lat":27.45},{"title":"CHN_Hunan.Zhuzhou.577800_CSWD","epw_url":"https://energyplus-weather.s3.amazonaws.com/asia_wmo_region_2/CHN/CHN_Hunan.Zhuzhou.577800_CSWD/CHN_Hunan.Zhuzhou.577800_CSWD.epw","lon":113.17,"lat":27.87},{"title":"CHN_Jiangsu.Dongtai.582510_CSWD","epw_url":"https://energyplus-weather.s3.amazonaws.com/asia_wmo_region_2/CHN/CHN_Jiangsu.Dongtai.582510_CSWD/CHN_Jiangsu.Dongtai.582510_CSWD.epw","lon":120.32,"lat":32.87},{"title":"CHN_Jiangsu.Ganyu.580400_CSWD","epw_url":"https://energyplus-weather.s3.amazonaws.com/asia_wmo_region_2/CHN/CHN_Jiangsu.Ganyu.580400_CSWD/CHN_Jiangsu.Ganyu.580400_CSWD.epw","lon":119.12,"lat":34.83},{"title":"CHN_Jiangsu.Huaiyang-Qingjiang.581440_CSWD","epw_url":"https://energyplus-weather.s3.amazonaws.com/asia_wmo_region_2/CHN/CHN_Jiangsu.Huaiyang-Qingjiang.581440_CSWD/CHN_Jiangsu.Huaiyang-Qingjiang.581440_CSWD.epw","lon":119.02,"lat":33.63},{"title":"CHN_Jiangsu.Lusi.582650_CSWD","epw_url":"https://energyplus-weather.s3.amazonaws.com/asia_wmo_region_2/CHN/CHN_Jiangsu.Lusi.582650_CSWD/CHN_Jiangsu.Lusi.582650_CSWD.epw","lon":121.6,"lat":32.07},{"title":"CHN_Jiangsu.Nanjing.582380_CSWD","epw_url":"https://energyplus-weather.s3.amazonaws.com/asia_wmo_region_2/CHN/CHN_Jiangsu.Nanjing.582380_CSWD/CHN_Jiangsu.Nanjing.582380_CSWD.epw","lon":118.8,"lat":32.83},{"title":"CHN_Jiangsu.Xuzhou.580270_CSWD","epw_url":"https://energyplus-weather.s3.amazonaws.com/asia_wmo_region_2/CHN/CHN_Jiangsu.Xuzhou.580270_CSWD/CHN_Jiangsu.Xuzhou.580270_CSWD.epw","lon":117.15,"lat":34.28},{"title":"CHN_Jiangxi.Ganzhou.579930_CSWD","epw_url":"https://energyplus-weather.s3.amazonaws.com/asia_wmo_region_2/CHN/CHN_Jiangxi.Ganzhou.579930_CSWD/CHN_Jiangxi.Ganzhou.579930_CSWD.epw","lon":115,"lat":25.87},{"title":"CHN_Jiangxi.Jian.577990_CSWD","epw_url":"https://energyplus-weather.s3.amazonaws.com/asia_wmo_region_2/CHN/CHN_Jiangxi.Jian.577990_CSWD/CHN_Jiangxi.Jian.577990_CSWD.epw","lon":114.92,"lat":27.05},{"title":"CHN_Jiangxi.Jingdezhen.585270_CSWD","epw_url":"https://energyplus-weather.s3.amazonaws.com/asia_wmo_region_2/CHN/CHN_Jiangxi.Jingdezhen.585270_CSWD/CHN_Jiangxi.Jingdezhen.585270_CSWD.epw","lon":117.2,"lat":29.3},{"title":"CHN_Jiangxi.Nanchang.586060_CSWD","epw_url":"https://energyplus-weather.s3.amazonaws.com/asia_wmo_region_2/CHN/CHN_Jiangxi.Nanchang.586060_CSWD/CHN_Jiangxi.Nanchang.586060_CSWD.epw","lon":115.92,"lat":28.6},{"title":"CHN_Jiangxi.Nancheng.587150_CSWD","epw_url":"https://energyplus-weather.s3.amazonaws.com/asia_wmo_region_2/CHN/CHN_Jiangxi.Nancheng.587150_CSWD/CHN_Jiangxi.Nancheng.587150_CSWD.epw","lon":116.65,"lat":27.58},{"title":"CHN_Jiangxi.Nancheng.587150_SWERA","epw_url":"https://energyplus-weather.s3.amazonaws.com/asia_wmo_region_2/CHN/CHN_Jiangxi.Nancheng.587150_SWERA/CHN_Jiangxi.Nancheng.587150_SWERA.epw","lon":116.65,"lat":27.58},{"title":"CHN_Jiangxi.Nanjing.582380_SWERA","epw_url":"https://energyplus-weather.s3.amazonaws.com/asia_wmo_region_2/CHN/CHN_Jiangxi.Nanjing.582380_SWERA/CHN_Jiangxi.Nanjing.582380_SWERA.epw","lon":118.8,"lat":32},{"title":"CHN_Jiangxi.Suichuan.578960_CSWD","epw_url":"https://energyplus-weather.s3.amazonaws.com/asia_wmo_region_2/CHN/CHN_Jiangxi.Suichuan.578960_CSWD/CHN_Jiangxi.Suichuan.578960_CSWD.epw","lon":114.5,"lat":26.33},{"title":"CHN_Jiangxi.Yichun.577930_CSWD","epw_url":"https://energyplus-weather.s3.amazonaws.com/asia_wmo_region_2/CHN/CHN_Jiangxi.Yichun.577930_CSWD/CHN_Jiangxi.Yichun.577930_CSWD.epw","lon":114.38,"lat":27.8},{"title":"CHN_Jiangxi.Yushan.586340_CSWD","epw_url":"https://energyplus-weather.s3.amazonaws.com/asia_wmo_region_2/CHN/CHN_Jiangxi.Yushan.586340_CSWD/CHN_Jiangxi.Yushan.586340_CSWD.epw","lon":118.33,"lat":28.68},{"title":"CHN_Jilin.Baicheng.509360_CSWD","epw_url":"https://energyplus-weather.s3.amazonaws.com/asia_wmo_region_2/CHN/CHN_Jilin.Baicheng.509360_CSWD/CHN_Jilin.Baicheng.509360_CSWD.epw","lon":122.83,"lat":45.63},